stop_id,stop_code,stop_name,stop_lat,stop_lon
26,25114,"KSIĘŻE MAŁE",51.0778430800,17.0836356900
40,12102,"Wrocławski Park Przemysłowy",51.1125666800,16.9942315400
43,20923,"PL. GRUNWALDZKI",51.1121887100,17.0633575200
46,227911,"KRZYŻANOWICE",51.1740924200,17.0488776800
52,29537,"Starodębowa",51.1673054900,17.1059007000
63,18354,"Brzezińska",51.1494362300,16.8666373500
77,18374,"Polkowicka",51.1552629200,16.8730698200
78,18373,"Polkowicka",51.1554325000,16.8734630700
80,18372,"Wolska",51.1469110000,16.8693790000
81,18129,"Park Stabłowicki",51.1596774500,16.8936900200
82,18130,"Park Stabłowicki",51.1601889800,16.8937057100
87,18123,"Śnieżna",51.1496842800,16.8793580400
88,18124,"Śnieżna",51.1495061000,16.8789305100
89,18121,"Jeleniogórska",51.1456283400,16.8760243800
90,18122,"Jeleniogórska",51.1463271400,16.8763926900
96,18703,"Wełniana",51.1611804100,16.9044891100
101,18718,"Zbożowa",51.1735297900,16.9121521600
102,18719,"Zbożowa",51.1734183300,16.9129409600
125,12711,"Kolista",51.1327370900,16.9738810400
127,12702,"Kolista",51.1326958400,16.9726114600
138,18142,"Złotnicka",51.1432804900,16.8890339100
148,18318,"Miodowa",51.1351482500,16.8487416100
160,17717,"Kośnego",51.1207106000,16.8640121100
181,17702,"Szczecińska",51.1224508500,16.9309962300
182,17701,"Szczecińska",51.1225505800,16.9307786400
192,12502,"Park Zachodni",51.1287913400,16.9728665600
193,12501,"Park Zachodni",51.1298533300,16.9709380000
200,12517,"Hynka",51.1224620800,16.9621544900
201,12518,"Hynka",51.1223775500,16.9616045600
204,12511,"Na Ostatnim Groszu",51.1231804900,16.9750780800
206,12513,"Orlińskiego",51.1221205200,16.9719204400
207,12514,"Orlińskiego",51.1225167500,16.9729111300
222,10519,"POPOWICE (Stacja kolejowa)",51.1260957700,17.0035840400
229,10514,"Szczepin",51.1170944100,17.0079669000
230,10513,"Szczepin",51.1177204600,17.0075345100
242,10501,"PL. JANA PAWŁA II",51.1121544100,17.0207247200
255,32109,"Nowy Dwór",51.1124566500,16.9607992200
29,21101,"Dyrekcyjna",51.0943013600,17.0322290900
30,10381,"pl. Orląt Lwowskich",51.1071331900,17.0193938800
44,23541,"POŚWIĘCKA (Ośrodek zdrowia)",51.1564994400,17.0320980800
51,29535,"Pawłowice",51.1655438200,17.1063972500
54,29536,"Malwowa",51.1669278700,17.1099854200
65,18343,"Mokrzańska",51.1475429900,16.8531224500
66,90336010,"Wilkszyn - Polna",51.1890493000,16.8661957000
71,18724,"Wilkszyńska",51.1736440100,16.8862201500
73,18721,"Marszowice",51.1674065000,16.8911978100
74,18722,"Marszowice",51.1678519500,16.8904964100
75,18734,"Bojanowska",51.1651292500,16.8813582900
79,18371,"Wolska",51.1466610000,16.8693550000
84,18128,"Stabłowice",51.1564929900,16.8913875000
85,18125,"Ciechocińska",51.1527640000,16.8840550000
91,18707,"Główna",51.1636348700,16.8966882100
92,18712,"PRACZE ODRZAŃSKIE (Stacja kolejowa)",51.1713957000,16.9024931000
95,18709,"STABŁOWICKA (Ośrodek zdrowia)",51.1674958500,16.8992412500
100,18513,"Lubelska",51.1639163100,16.9191472700
103,18716,"JANÓWEK (WOŚ)",51.1917402700,16.9060830800
105,18508,"Północna",51.1570317500,16.9344602800
115,12707,"Górnicza",51.1406265500,16.9582568900
116,12731,"Górnicza",51.1405898600,16.9592038200
119,12704,"Modra",51.1362553500,16.9667695100
122,12716,"Dzielna",51.1386343100,16.9768901400
128,12701,"Kolista",51.1334616200,16.9717282100
133,18103,"Grabowa",51.1400562100,16.9209472000
134,18102,"Glinianki",51.1381194700,16.9362835200
137,18107,"Złotnicka",51.1441008300,16.8888643900
139,18141,"Złotnicka",51.1436260900,16.8893468900
147,18315,"Trzmielowicka",51.1417087200,16.8553300100
150,18320,"Szkolna",51.1316081900,16.8481725900
153,98325,"RATYŃ",51.1297596400,16.8604872400
161,17718,"Kośnego",51.1204467300,16.8631401000
166,17716,"Adamczewskich",51.1208439600,16.8695348600
180,17704,"Żerniki",51.1230927200,16.9248345000
184,12127,"Kołobrzeska",51.1211968500,16.9449610800
186,18144,"Wielkopolska",51.1411474200,16.8869030800
15,12525,"Metalowców",51.1338260900,16.9567351200
27,25113,"KSIĘŻE MAŁE",51.0769998000,17.0844074000
33,20312,"pl. Wróblewskiego",51.1053429000,17.0489335300
47,23724,"Bagatela",51.1522133200,17.0700590100
76,18733,"Bojanowska",51.1653264500,16.8818990400
83,18127,"Stabłowice",51.1556701600,16.8900970200
86,18126,"Ciechocińska",51.1525570000,16.8834970000
93,18711,"PRACZE ODRZAŃSKIE (Stacja kolejowa)",51.1721498500,16.9033906600
94,18710,"STABŁOWICKA (Ośrodek zdrowia)",51.1668332600,16.8985987100
99,18514,"Lubelska",51.1634860400,16.9192652800
106,18507,"Północna",51.1575562100,16.9335171300
112,18523,"Turoszowska",51.1530520600,16.9476315600
113,18536,"Dworska",51.1436063500,16.9534481200
120,12720,"KOZANÓW",51.1374775400,16.9683083100
123,12715,"Dzielna",51.1388593600,16.9747484300
132,18104,"Grabowa",51.1397849300,16.9222746700
135,18101,"Glinianki",51.1385060900,16.9344320800
142,18312,"Średzka",51.1453562200,16.8666079400
146,18316,"Trzmielowicka",51.1409576600,16.8546078700
149,18317,"Miodowa",51.1355576700,16.8489406600
151,18319,"Szkolna",51.1325609400,16.8481176300
155,18323,"Gromadzka",51.1292307400,16.8548804800
156,18333,"Las Ratyński",51.1235167000,16.8330710000
167,17715,"Adamczewskich",51.1209533900,16.8695615700
179,17703,"Żerniki",51.1236331100,16.9229511900
183,12128,"Kołobrzeska",51.1210305500,16.9454134200
188,18145,"Złotniki",51.1395055500,16.8916672700
194,12524,"METALOWCÓW (Ośrodek sportu)",51.1298659200,16.9549646700
198,12541,"Bystrzycka",51.1240566300,16.9580712800
203,12515,"Drzewieckiego",51.1217958200,16.9677468300
205,12512,"Na Ostatnim Groszu",51.1233898900,16.9765406800
209,12317,"Wejherowska",51.1291718500,16.9853284800
210,12315,"Wejherowska",51.1298272000,16.9851259800
212,12303,"Kwiska",51.1255823700,16.9834199800
216,12312,"Popowice",51.1260430400,16.9966930700
223,10520,"POPOWICE (Stacja kolejowa)",51.1258924200,17.0028523700
228,10524,"Długa",51.1188833900,17.0148667100
258,12133,"Zemska",51.1164239600,16.9467466100
259,12124,"Chociebuska",51.1146730400,16.9580598300
282,11727,"Aleja Pracy",51.0912815800,16.9865558100
284,11723,"Aleja Pracy",51.0918696000,16.9853733400
285,11744,"Ojca Beyzyma",51.0903376900,16.9921321500
286,11743,"Ojca Beyzyma",51.0906467900,16.9922862000
287,11746,"Ślusarska",51.0841596000,16.9903802000
288,11745,"Ślusarska",51.0847614100,16.9905185000
293,11703,"Hutmen",51.0959695500,16.9853453800
294,11704,"Hutmen",51.0960276600,16.9863183300
307,11522,"Krucza",51.0934228300,17.0083676000
309,11511,"Krucza",51.0944236000,17.0107815500
311,11512,"Krucza",51.0950533500,17.0086204000
320,11344,"Drukarska",51.0897742800,17.0213907500
321,11343,"Drukarska",51.0900688900,17.0202333600
336,11365,"PARK POŁUDNIOWY",51.0736373900,17.0124948200
339,16511,"Przyjaźni",51.0678664200,17.0037727500
340,16512,"Przyjaźni",51.0687684000,17.0047434500
348,26334,"Ołtaszyn",51.0580908500,17.0234270500
388,16506,"KLECINA",51.0654071700,16.9874249900
389,16531,"KLECINA",51.0653376500,16.9867536500
394,16518,"Wawrzyniaka",51.0765863700,16.9968549000
395,16517,"Wawrzyniaka",51.0780740000,16.9982022000
396,11307,"KRZYKI",51.0752719000,17.0066644200
397,17115,"Morelowskiego",51.0696805200,16.9689522100
398,17116,"Morelowskiego",51.0702260800,16.9682534100
422,25115,"Zagłębiowska",51.0727551600,17.0891407500
434,25109,"Karwińska",51.0813706000,17.0781845600
439,21149,"Klimasa",51.0799002100,17.0623729600
440,21150,"Klimasa",51.0801615700,17.0624714800
452,21129,"Morwowa",51.0759126400,17.0519091400
466,25304,"Topolowa",51.0694651300,17.0804192500
467,25303,"Topolowa",51.0695955700,17.0801135800
468,25306,"BROCHÓW (Stacja kolejowa)",51.0636048200,17.0837437300
469,25310,"BROCHÓW",51.0589129500,17.0872856700
496,11323,"Zielińskiego",51.0985220000,17.0205051500
497,11324,"Zielińskiego",51.0981001900,17.0202284100
520,20315,"Na Niskich Łąkach",51.0966840400,17.0577493300
187,18146,"Złotniki",51.1389365300,16.8934000800
199,12542,"Bystrzycka",51.1233331100,16.9587513000
202,12516,"Drzewieckiego",51.1215805200,16.9679089200
217,12311,"Popowice",51.1263766400,16.9952899900
218,10518,"DŁUGA (Politechnika)",51.1236143100,17.0109206500
226,10516,"Poznańska",51.1211119100,17.0119443000
227,10525,"Długa",51.1190835700,17.0152833600
233,10507,"ZACHODNIA (Stacja kolejowa)",51.1160249300,17.0012958900
247,10548,"Śrubowa",51.1124317600,17.0010101300
262,12126,"Nowy Dwór (Rogowska)",51.1186519500,16.9537881200
266,17503,"Zagłoby",51.1098037400,16.9280002300
268,17501,"Park Tysiąclecia",51.1092177700,16.9415729200
271,17303,"Muchobór Wielki",51.0988644300,16.9412746000
274,17307,"Krzemieniecka",51.0963781000,16.9569500200
277,17310,"Końcowa",51.0959813500,16.9621510700
279,11713,"Ostrowskiego",51.0952951700,16.9728792200
300,11721,"Inżynierska",51.0947688200,16.9911838000
302,11513,"Grochowa",51.0962177400,17.0058089100
308,11521,"Krucza",51.0935887800,17.0099333100
310,11535,"Krucza",51.0941304800,17.0095389100
315,11542,"Zaporoska",51.0978994000,17.0146602800
317,11335,"Pl. Hirszfelda",51.0944897700,17.0163348100
326,11305,"Orla",51.0800251200,17.0077691200
335,16522,"Wyścigowa",51.0706036600,17.0113651900
338,16525,"Hippiczna",51.0684791400,17.0089487100
351,26312,"Kurpiów",51.0548816500,17.0266107900
355,26343,"Kutrzeby",51.0518331800,17.0188292800
376,16716,"Kwiatkowskiego",51.0586752600,16.9563486000
378,16704,"WAŁBRZYSKA",51.0639551200,16.9795281100
380,16701,"Kościelna",51.0636966100,16.9813820000
387,16504,"Os. Przyjaźni",51.0695733800,16.9973643100
390,16516,"Chłodna",51.0749863500,16.9968312900
392,16513,"Sowia",51.0737926200,17.0018449400
404,17101,"Solskiego",51.0812013100,16.9677037700
423,25116,"Zagłębiowska",51.0740204200,17.0880132600
432,25141,"Księska",51.0763938800,17.0901978600
435,25108,"Karwińska",51.0825680100,17.0764368600
450,21134,"Świeradowska",51.0770466400,17.0462375200
3,18717,"Janówek",51.1980830000,16.9058919700
16,12526,"Metalowców",51.1330889400,16.9592179100
35,20332,"Krasińskiego",51.1058589600,17.0433408200
50,29517,"KŁOKOCZYCE",51.1569605300,17.0962815100
55,29507,"ZAKRZÓW",51.1622711800,17.1251501000
61,18355,"Dolnobrzeska",51.1550175700,16.8594144100
62,18356,"Dolnobrzeska",51.1550096700,16.8590301600
69,18726,"Krzelowska",51.1774615200,16.8786003600
70,18725,"Krzelowska",51.1777188700,16.8784210500
72,18732,"Marszowice",51.1668650200,16.8901242700
97,18701,"Chwałkowska",51.1597972000,16.9101406700
98,18702,"Chwałkowska",51.1595240700,16.9107602900
104,18715,"JANÓWEK (WOŚ)",51.1917211000,16.9063005900
107,18509,"Kozia",51.1576890900,16.9276646100
108,18510,"Kozia",51.1575170200,16.9266805100
114,12708,"Górnicza",51.1399021200,16.9594143300
124,12713,"Wiślańska",51.1359184100,16.9790481300
129,12503,"Metalowców",51.1327474000,16.9582917200
143,18311,"Średzka",51.1452856500,16.8663489400
154,18324,"Gromadzka",51.1292442500,16.8538707900
171,17733,"Gałowska",51.1132364400,16.8450913800
172,17734,"Gałowska",51.1135177200,16.8452426300
177,17705,"Strachowicka",51.1235147500,16.9190698800
178,17706,"Strachowicka",51.1236751000,16.9168737800
185,18143,"Wielkopolska",51.1405879400,16.8875703200
191,18109,"Wschowska",51.1451622300,16.8802209200
195,12911,"KUŹNIKI",51.1238390200,16.9499502300
196,12902,"Hermanowska",51.1221794500,16.9557759500
197,12901,"Hermanowska",51.1223290200,16.9558351800
208,12316,"Wejherowska",51.1294515200,16.9866403700
211,12304,"Kwiska",51.1247132700,16.9844113400
214,12314,"Rysia",51.1279101700,16.9905910900
215,12313,"Rysia",51.1285206700,16.9899350800
219,10517,"DŁUGA (Politechnika)",51.1252886200,17.0100183300
231,10510,"Głogowska",51.1174262400,17.0035309700
232,10509,"Głogowska",51.1176959900,17.0040245600
236,10512,"Inowrocławska",51.1155868600,17.0139613900
269,17508,"Graniczna",51.1083600200,16.9100751600
234,10508,"ZACHODNIA (Stacja kolejowa)",51.1160666300,17.0004452200
235,10511,"Inowrocławska",51.1154377400,17.0152886900
239,10504,"Młodych Techników",51.1125973500,17.0121382100
240,10502,"PL. JANA PAWŁA II",51.1117500700,17.0204681500
251,12122,"Nowy Dwór",51.1125872800,16.9599295600
260,12123,"Chociebuska",51.1157845300,16.9585619300
261,12125,"Nowy Dwór (Rogowska)",51.1186231100,16.9548696300
265,17504,"Zagłoby",51.1095419000,16.9302482300
267,17502,"Park Tysiąclecia",51.1087356100,16.9432753000
275,17308,"Krzemieniecka",51.0967339800,16.9548996900
276,17309,"Końcowa",51.0958214900,16.9624517200
278,11714,"Ostrowskiego",51.0950400000,16.9738790000
303,11514,"Grochowa",51.0971763900,17.0040351300
312,11541,"Zaporoska",51.0965397500,17.0145216700
314,11531,"Zaporoska",51.0969778600,17.0135578800
327,11306,"Orla",51.0801599200,17.0084930900
337,16526,"Hippiczna",51.0679444400,17.0088540200
346,26315,"Strachowskiego",51.0585985900,17.0137882700
347,26341,"Ołtaszyn",51.0568003800,17.0222771800
352,26311,"Kurpiów",51.0546745900,17.0268831300
353,26307,"Gałczyńskiego",51.0550544200,17.0322110100
356,26344,"Kutrzeby",51.0523518500,17.0194239600
386,16503,"Os. Przyjaźni",51.0692228100,16.9966602700
425,25131,"Brochowska",51.0691156800,17.0929395700
433,25142,"Księska",51.0767904500,17.0892144900
436,25111,"Karwińska",51.0812736800,17.0767333800
451,21133,"Świeradowska",51.0768453900,17.0479991100
454,21172,"Orzechowa",51.0833436600,17.0394669600
464,25302,"Wiaduktowa",51.0752130500,17.0764034900
480,21105,"Śliczna",51.0850864300,17.0349837600
494,10373,"pl. Legionów",51.1037138500,17.0227095800
499,10376,"Piłsudskiego",51.1020379200,17.0253017800
506,11302,"Rondo",51.0911494400,17.0178796300
532,25503,"Międzyrzecka",51.0943624900,17.0823601800
535,25507,"Nowy Dom",51.0933543500,17.1072604700
549,20302,"Poczta Główna",51.1078565000,17.0456374200
551,24502,"Hala Stulecia",51.1074278200,17.0726744600
531,25510,"Opatowicka nr 85",51.0952078000,17.1231649400
534,25508,"Nowy Dom",51.0934020400,17.1070655300
536,25505,"Bierdzany",51.0917167600,17.0926170300
537,25506,"Bierdzany",51.0921170300,17.0912942500
540,25513,"Zalewowa",51.0904958400,17.1350791100
554,24503,"Tramwajowa",51.1042169300,17.0831066900
555,24516,"Monte Cassino",51.1065541500,17.1044502200
556,24515,"Monte Cassino",51.1064727900,17.1051594100
565,24508,"BISKUPIN",51.1011625500,17.1083539600
583,24711,"Zagrodnicza",51.1071759700,17.1422417200
587,24716,"Strumykowa",51.1014093100,17.1577110900
588,24715,"Strumykowa",51.1004759700,17.1587902000
607,24303,"Śniadeckich",51.1197837900,17.0774629500
624,23701,"Berenta",51.1349714000,17.0577733900
625,23702,"Berenta",51.1355033400,17.0564686600
626,23134,"Pola",51.1367169500,17.0431746800
627,23133,"Pola",51.1367486200,17.0446982300
628,23731,"Berenta",51.1355112000,17.0575858200
629,23732,"Berenta",51.1357800000,17.0575871100
633,23721,"Redycka",51.1491673300,17.0752146900
636,23122,"Broniewskiego",51.1350993400,17.0364976500
637,23141,"Broniewskiego",51.1359043600,17.0353272200
638,23121,"Broniewskiego",51.1363434500,17.0366867900
657,10712,"Dubois",51.1164097300,17.0332959000
659,23307,"Las Osobowicki",51.1478158900,16.9842128500
660,23308,"Las Osobowicki",51.1479741600,16.9838305100
661,23306,"Lipska",51.1443278900,16.9871264400
662,23305,"Lipska",51.1448119600,16.9867691300
667,23150,"Paprotna",51.1477521500,17.0205392900
669,23152,"Irysowa",51.1506471500,17.0178953400
670,23151,"Irysowa",51.1514322000,17.0173848600
684,23126,"Kępińska",51.1442055700,17.0308209800
685,23125,"Kępińska",51.1444099000,17.0314311400
690,23530,"Widawa",51.1753073700,17.0227755900
691,23529,"Widawa",51.1757613100,17.0232191100
711,29103,"Psie Pole",51.1455513600,17.1109989000
715,29531,"Przedwiośnie (Stacja kolejowa)",51.1602487800,17.1210092900
459,21144,"Kamienna",51.0859398000,17.0465032900
465,25301,"Wiaduktowa",51.0754529800,17.0760928600
493,110274,"pl. Orląt Lwowskich",51.1072991300,17.0214432900
498,10375,"Piłsudskiego",51.1018217400,17.0247599100
507,11301,"Rondo",51.0916063600,17.0178479900
508,11321,"DWORZEC AUTOBUSOWY",51.0972677900,17.0322836700
509,21102,"DWORZEC AUTOBUSOWY",51.0965745500,17.0329804700
515,120213,"Świstackiego",51.0990054400,17.0501344200
522,10335,"Renoma",51.1041265100,17.0323177900
530,25509,"Opatowicka nr 85",51.0951553600,17.1230275800
533,25504,"Międzyrzecka",51.0949543400,17.0807391400
543,10103,"Rynek",51.1110606000,17.0272088000
546,10111,"GALERIA DOMINIKAŃSKA",51.1074017100,17.0397532200
552,24312,"Park Szczytnicki",51.1114017700,17.0821702900
563,24518,"Bacciarellego",51.1054386700,17.1116518200
576,24315,"SĘPOLNO",51.1136450200,17.1033342800
579,24723,"Miłoszycka",51.1169419100,17.1262475000
582,24712,"Zagrodnicza",51.1067304600,17.1432352200
584,24719,"Kmieca",51.1046407500,17.1466674300
595,24726,"Ceglana",51.1210891300,17.1208423900
604,24131,"Kwidzyńska",51.1322610500,17.0794591800
608,24304,"Śniadeckich",51.1205704600,17.0773104000
611,24104,"Grudziądzka",51.1378804900,17.0736345400
612,24106,"Brücknera",51.1395148500,17.0810791400
623,23703,"Kasprowicza",51.1374410800,17.0529068200
641,20717,"Trzebnicka",51.1286946500,17.0368436200
646,23123,"Kamieńskiego",51.1393462800,17.0331472500
648,23116,"Bezpieczna",51.1412386800,17.0250751400
650,23114,"Różanka",51.1393994100,17.0211160300
664,23303,"Jarocińska",51.1423082100,16.9902143800
675,23507,"Kominiarska",51.1691800900,16.9971980000
680,23513,"Zajączkowska",51.1933045800,16.9781417200
687,23525,"Lekarska",51.1612692200,17.0277130700
697,23163,"Jutrosińska",51.1463619300,17.0418826300
700,23555,"Ługowa",51.1592049500,17.0446813800
708,24107,"C.H. Korona",51.1417828200,17.0932825800
713,29539,"Kopańskiego",51.1545333800,17.1189670500
735,29105,"PSIE POLE (Stacja kolejowa)",51.1496815200,17.1200050900
762,29124,"Gorlicka",51.1438095000,17.1193789900
763,29123,"Gorlicka",51.1432584300,17.1205019200
764,29304,"Zgorzelisko",51.1389264900,17.1306132600
791,18357,"Mokra",51.1714601300,16.8377438800
792,18358,"Mokra",51.1715619400,16.8373543400
798,18742,"PRACZE ODRZAŃSKIE",51.1742539400,16.9082498500
799,18743,"PRACZE ODRZAŃSKIE",51.1742622200,16.9053277800
800,18511,"Jędrzejowska",51.1583647300,16.9168876700
812,11729,"OPORÓW",51.0839290000,16.9709156700
818,120616,"DWORZEC NADODRZE",51.1248538300,17.0348736500
824,123008,"OSOBOWICKA (Cmentarz)",51.1350846600,17.0055331100
829,120852,"Prusa",51.1198616000,17.0563735900
830,120851,"Prusa",51.1197690000,17.0565600000
836,120826,"Bujwida",51.1136734200,17.0676557400
853,121005,"Joannitów",51.0934219300,17.0360069200
856,120205,"Na Niskich Łąkach",51.0970535200,17.0561561500
859,121009,"Prudnicka",51.0891998500,17.0451315000
860,121010,"Prudnicka",51.0900427600,17.0447006800
862,116406,"Braterska",51.0675833100,16.9994387300
886,20317,"Kościuszki",51.1000415400,17.0444163500
917,24534,"Spółdzielcza",51.1027865900,17.1027174900
928,11375,"Jaworowa",51.0803377500,17.0212776300
935,24126,"Kowale (Stacja kolejowa)",51.1341685600,17.1016776000
952,10535,"PL. JANA PAWŁA II",51.1122343800,17.0228064700
961,11362,"Wiśniowa",51.0843160400,17.0236254700
964,110654,"Pomorska",51.1180115000,17.0307452500
974,18329,"Ratyń - skrzyżowanie",51.1306630400,16.8475935500
981,18521,"Brodzka",51.1568793000,16.9229924000
998,23130,"Kamieńskiego",51.1394310400,17.0311768000
1025,18708,"Główna",51.1629043700,16.8957229600
1030,24110,"C.H. Korona",51.1421242700,17.0927085500
1042,12306,"Małopanewska",51.1239023600,16.9868138100
1043,12305,"Małopanewska",51.1240537400,16.9874779200
1045,12507,"Bajana",51.1311920500,16.9657363200
1051,18532,"Królewiecka",51.1452642800,16.9464290800
1052,18531,"Królewiecka",51.1460958400,16.9448838300
716,29534,"Azaliowa",51.1641714100,17.1119364000
726,29506,"Przedwiośnie (Stacja kolejowa)",51.1596641900,17.1215061800
727,29508,"ZAKRZÓW",51.1618697000,17.1244177400
749,31912004,"Dąbrowica",51.2176411400,17.2163361800
760,29316,"Żmudzka",51.1440083000,17.1409808300
765,29301,"Palacha",51.1404994500,17.1263193500
767,29306,"Mroźna",51.1348601600,17.1384322200
775,31917011,"Kiełczów - osiedle",51.1324518000,17.1717445100
779,23704,"Kasprowicza",51.1378651500,17.0536707600
783,11538,"Gajowicka",51.0886347900,17.0066463300
785,12519,"KUŹNIKI (Stacja kolejowa)",51.1262151500,16.9550870400
790,17506,"Przybyły",51.1088700500,16.9187671100
801,18512,"Jędrzejowska",51.1581384600,16.9175631500
803,24322,"SĘPOLNO",51.1139437200,17.1036990900
815,110655,"Pomorska",51.1178954300,17.0308934600
823,120624,"Na Szańcach",51.1193860000,17.0420590000
828,120669,"Wyszyńskiego",51.1223244700,17.0519629100
832,120854,"Piastowska",51.1153652900,17.0609685000
840,110023,"Hala Targowa",51.1127695100,17.0397359400
849,110250,"Renoma",51.1042864100,17.0300933000
855,121007,"Gajowa",51.0917270400,17.0401052200
858,125008,"Park Wschodni",51.0851939600,17.0721274500
863,116408,"Sąsiedzka",51.0667271900,16.9944933100
870,110255,"pl. Orląt Lwowskich",51.1077801400,17.0221312500
871,24321,"SĘPOLNO",51.1138712400,17.1039946400
873,120803,"Górnickiego",51.1162501300,17.0550195200
875,120813,"Reja",51.1128040000,17.0556100000
889,24524,"Chełmońskiego",51.1037603000,17.0908703600
891,12506,"PILCZYCE",51.1363248500,16.9498929800
911,18331,"Ratyń - skrzyżowanie",51.1299792900,16.8466710400
913,18321,"Ratyń - skrzyżowanie",51.1294007700,16.8483917800
918,12540,"Szybowcowa",51.1301180700,16.9660210200
921,11540,"Gajowicka",51.0876546200,17.0067966200
923,11373,"Wiśniowa",51.0832368700,17.0240315000
925,11369,"Sanocka",51.0932632800,17.0300793500
934,24125,"Kowale (Stacja kolejowa)",51.1339367600,17.1022124300
939,24722,"Mikołowska",51.1111692700,17.1367838100
943,10379,"Grabiszyńska",51.1022549400,17.0123390900
988,24128,"Kowalska",51.1296578800,17.1131234000
992,18346,"ŻAR",51.1496991200,16.8345367700
999,25135,"Armii Krajowej",51.0866161500,17.0693027800
1000,11312,"KRZYKI",51.0743848600,17.0066998900
1011,120206,"Na Niskich Łąkach",51.0962677000,17.0565490700
1026,11322,"EPI",51.0981847300,17.0304730000
1034,24727,"Volvo",51.1201920000,17.1147450000
1038,18704,"Wełniana",51.1608408700,16.9052291400
1040,11720,"GRABISZYŃSKA (Cmentarz)",51.0896217000,16.9766622100
1044,12508,"Bajana",51.1304830400,16.9669594000
1065,21175,"Wiśniowa",51.0835490900,17.0264160200
1081,31453009,"Bierzyce",51.2357831700,17.1837669600
1093,31919003,"Bielawa",51.1602028300,17.2522432300
1113,26335,"Świt",51.0604743900,17.0255953200
1125,18706,"Główna",51.1631700900,16.8966747900
1128,18735,"Marszowicka",51.1630125700,16.8783571200
1129,18353,"Brzezińska",51.1496508400,16.8667172400
1140,12714,"Wiślańska",51.1363878900,16.9789074900
1142,112206,"Kwiska",51.1252750000,16.9835144300
1161,123006,"OSOBOWICKA (Cmentarz II)",51.1345367600,17.0109551100
1172,21370003,"Szymanów - skrzyż.",51.1884069300,17.0306521000
1173,23162,"Mochnackiego",51.1422877500,17.0367516800
1174,12156,"Szkocka",51.1101418200,16.9688408000
1178,20903,"Ogród Botaniczny",51.1171567400,17.0514722200
1184,23715,"Czajkowskiego",51.1391643300,17.0651072100
1198,31341008,"Szczodre - Szkoła",51.1982979900,17.1896988900
1213,24710,"Niedziałkowskiego",51.1098110000,17.1379810000
1215,26302,"Przystankowa",51.0715250900,17.0325755300
1230,29312,"Poleska",51.1465301600,17.1290510900
1237,24317,"Stadion Olimpijski",51.1168253900,17.0900745800
1250,18110,"Wschowska",51.1448632500,16.8818469500
1260,16523,"Przyjaźni",51.0697348300,17.0040088200
1264,17117,"Marchewkowa",51.0664376200,16.9741303100
1275,24520,"Monte Cassino",51.1056955800,17.1050499900
1283,16520,"Radio i Telewizja",51.0718813200,17.0063211100
1313,120627,"Nowowiejska",51.1241920000,17.0450180000
1314,120631,"Daszyńskiego",51.1263180700,17.0477574100
1329,23105,"OSOBOWICKA (Cmentarz II)",51.1349043200,17.0091195400
1332,16706,"Marcepanowa",51.0623652800,16.9763931500
1339,18533,"Brodzka",51.1575745500,16.9240635500
1351,25005,"Armii Krajowej",51.0875013900,17.0682828700
1353,12406,"Bajana",51.1306069200,16.9672487900
1360,24014,"Bociania",51.1298715700,17.0978813500
1363,23014,"Broniewskiego",51.1353023000,17.0363349100
1367,20825,"Bujwida",51.1133631600,17.0669058200
1376,11610,"GRABISZYŃSKA (Cmentarz)",51.0905846700,16.9769745800
1380,20631,"Daszyńskiego",51.1263299600,17.0476616400
1387,10411,"Dolmed",51.1141388300,17.0023525400
1389,20611,"Dubois",51.1172784300,17.0342973300
1396,20609,"DWORZEC NADODRZE",51.1242294000,17.0350092500
1407,11660,"FAT",51.0940732600,16.9803276600
1417,10022,"GALERIA DOMINIKAŃSKA",51.1084040300,17.0385789900
1427,20803,"Górnickiego",51.1162530900,17.0549195300
1429,10246,"Grabiszyńska",51.1020987800,17.0124409500
1435,11654,"GRABISZYNEK",51.0906694700,16.9889329100
1437,24402,"Hala Stulecia",51.1070882500,17.0734645200
1447,11211,"Jastrzębia",51.0842209300,17.0104920200
1457,21005,"Joannitów",51.0933772400,17.0361176600
1459,10011,"Oławska",51.1086347800,17.0339872300
1460,21011,"Kamienna",51.0849131600,17.0484029500
1470,20812,"Katedra",51.1133172200,17.0500348600
1477,24008,"Kętrzyńska",51.1309653600,17.0740608700
1481,21020,"Klimasa",51.0801847400,17.0626517100
1487,20262,"Komuny Paryskiej",51.1022548400,17.0466215400
1490,20263,"Kościuszki",51.1001977600,17.0452882700
1495,24003,"KROMERA",51.1316622100,17.0652258100
1498,25014,"KSIĘŻE MAŁE",51.0772781900,17.0840056000
1501,12206,"Kwiska",51.1252752500,16.9834276700
1505,20822,"most Grunwaldzki",51.1102121600,17.0553848800
1514,11454,"Mielecka",51.0895192000,17.0006031400
1517,10403,"Młodych Techników",51.1128750200,17.0119350800
1523,20624,"Na Szańcach",51.1194001600,17.0420180500
1526,12201,"Niedźwiedzia",51.1214828200,16.9934177900
1530,21016,"Nyska",51.0830575600,17.0544017000
1063,18307,"Pustecka",51.1399633500,16.8539153800
1079,31911001,"Kępa",51.2386183400,17.2092182200
1082,31453010,"Bierzyce",51.2360076000,17.1840852200
1085,31918001,"Długołęka - Kościół",51.1728104800,17.1932967700
1086,31918002,"Długołęka - Kościół",51.1730323200,17.1925235700
1138,12504,"Metalowców",51.1324312000,16.9577751900
1141,12321,"DH Astra",51.1284218300,16.9756709700
1143,12301,"Niedźwiedzia",51.1216976800,16.9933435700
1145,10503,"Młodych Techników",51.1130337800,17.0125979100
1150,12705,"Modra",51.1377356100,16.9648839000
1157,11554,"Mielecka",51.0895219800,16.9996896400
1160,23302,"OSOBOWICE",51.1374777700,16.9936599100
1162,23112,"Łużycka",51.1362300800,17.0164017000
1163,123001,"most Osobowicki",51.1331533800,17.0264207700
1164,123002,"most Osobowicki",51.1330485300,17.0276312700
1166,23147,"Bałtycka",51.1375866000,17.0306094400
1169,23514,"Zajączkowska",51.1928453600,16.9779146300
1177,20711,"Dubois",51.1169492400,17.0342119600
1208,24311,"Park Szczytnicki",51.1115466600,17.0830265300
1217,26308,"Gałczyńskiego",51.0542845600,17.0322495300
1231,24507,"BISKUPIN",51.1009889400,17.1087868800
1232,11341,"Uniwersytet Ekonomiczny",51.0897680300,17.0267317900
1248,24101,"KROMERA",51.1322240600,17.0651489300
1266,12537,"Szybowcowa",51.1293876900,16.9652179400
1267,11338,"Jastrzębia",51.0846358300,17.0112074900
1268,11337,"Jastrzębia",51.0837239800,17.0100384700
1269,11318,"Sztabowa",51.0880624400,17.0143858000
1270,11317,"Sztabowa",51.0889321100,17.0146463700
1285,24320,"Moniuszki",51.1194907100,17.0827921400
1286,24319,"Moniuszki",51.1194305400,17.0851497600
1289,20900,"Ogród Botaniczny",51.1169011100,17.0503602800
1298,31920022,"Kątna",51.1328295100,17.2838817700
1334,31917010,"Wilczyce - Sosnowa",51.1314904800,17.1680686700
1335,31917009,"Wilczyce - Sosnowa",51.1316349100,17.1681809800
1336,18350,"Owczarska",51.1517139500,16.8646837100
1337,18349,"Owczarska",51.1527587700,16.8635621500
1343,11231,"Uniwersytet Ekonomiczny",51.0898889600,17.0286671900
1534,10054,"Opera",51.1055157100,17.0320637400
1543,10243,"pl. Legionów",51.1048312500,17.0225798600
1548,20202,"pl. Wróblewskiego",51.1052627400,17.0480874000
1556,25007,"Park Wschodni",51.0848858600,17.0721940500
1559,12404,"Park Zachodni",51.1294052000,16.9714251000
1560,20614,"Paulińska",51.1209712800,17.0350055400
1565,10250,"Renoma",51.1042904300,17.0299979500
1568,20853,"Piastowska",51.1162081500,17.0609070400
1569,20806,"Piastowska",51.1158164800,17.0614917600
1577,12407,"Metalowców",51.1327735200,16.9574495900
1599,21009,"Prudnicka",51.0892028400,17.0450511600
1601,20851,"Prusa",51.1198444200,17.0563684700
1603,16404,"Przyjaźni",51.0685021100,17.0035471700
1609,20813,"Reja",51.1127861300,17.0555646400
1618,11035,"Sanocka",51.0932815900,17.0302326400
1626,24414,"Spółdzielcza",51.1022056800,17.1023223300
1633,11208,"Sztabowa",51.0881975400,17.0141845400
1637,10002,"Świdnicka",51.1073809300,17.0318946000
1640,21021,"TARNOGAJ",51.0781333100,17.0636492200
1642,16402,"Radio i Telewizja",51.0717340500,17.0059545500
1648,20617,"Trzebnicka",51.1281340600,17.0366644300
1650,25002,"Krakowska",51.0931094000,17.0606087300
1664,18010,"Wschowska",51.1447810300,16.8817250400
1669,10407,"ZACHODNIA (Stacja kolejowa)",51.1166283300,17.0003626000
1682,21007,"Gajowa",51.0917812800,17.0399864400
1704,18389,"RUBCZAKA (Stacja kolejowa)",51.1433057600,16.8663781800
1710,20801,"Ogród Botaniczny",51.1165953300,17.0520642200
1712,18728,"Łososiowicka",51.1757589800,16.8811738400
1715,16715,"Słoneczna",51.0588267100,16.9737796700
1717,31913007,"Januszkowice - Wierzbowa",51.2240190400,17.2384600200
1754,18731,"Małomicka",51.1666983700,16.8875611400
1759,12905,"KUŹNIKI",51.1238970000,16.9508620000
1764,12510,"Rękodzielnicza",51.1362357200,16.9603393900
1766,21137,"Morwowa",51.0765463900,17.0531701700
1782,120615,"DWORZEC NADODRZE",51.1247465500,17.0348941700
1819,24102,"KROMERA",51.1316473700,17.0626302400
1868,20615,"DWORZEC NADODRZE",51.1247491800,17.0349755900
1876,26327,"Ożynowa",51.0643969800,17.0094561800
1897,24002,"KROMERA",51.1317605400,17.0651457600
1911,18376,"Hartmana",51.1603831800,16.8774650100
1933,61955005,"Komorowice",51.0152184000,17.0006191900
1967,17102,"Solskiego",51.0817903600,16.9686697900
1979,31910004,"Bukowina",51.2105786100,17.1401120700
2011,11367,"PARK POŁUDNIOWY",51.0724375500,17.0109098700
2028,20906,"pl. Bema",51.1175134300,17.0410420900
2029,120621,"pl. Bema",51.1175088800,17.0421978100
2031,20621,"pl. Bema",51.1175025900,17.0421169100
2035,26301,"Przystankowa",51.0700097100,17.0321837600
2049,121026,"Morwowa",51.0772523100,17.0517072200
2106,31453026,"Pruszowice - las",51.1834638900,17.1449444600
2113,31922005,"Kiełczówek - pętla",51.1189697200,17.1863823400
2117,24138,"Kowalska I",51.1265525800,17.1153793300
2122,21024,"Krynicka",51.0795393400,17.0507425100
2123,18335,"Krajobrazowa",51.1289803400,16.8396436800
2172,23155,"Obornicka (Obwodnica)",51.1579494300,17.0099928900
2178,89537,"Starodębowa",51.1673829400,17.1059324800
2180,92052016,"Brzezina - Osiedle",51.1926658800,16.8334229000
2246,31917007,"Wilczyce - Dębowa",51.1305210500,17.1633087300
2261,12157,"ROD Oświata",51.1009791100,16.9727983900
2268,11333,"Komandorska",51.0921600900,17.0245164000
2275,29511,"Zakrzowska",51.1506056200,17.1155360800
2284,11328,"Wielka",51.0942240200,17.0215310400
2290,21117,"ROD Bajki",51.0825281300,17.0343704600
2296,25003,"KRAKOWSKA (Centrum handlowe)",51.0906290600,17.0639178800
2301,26112,"ROD Zgoda",51.0662839500,17.0592868000
2304,29502,"Zakrzowska",51.1516515900,17.1156409200
2357,12604,"PILCZYCKA (Anima)",51.1350960200,16.9691335300
2372,21141,"Borowska",51.0879368200,17.0360526600
2374,21104,"Borowska",51.0892957400,17.0341406700
2477,18359,"Las Mokrzański",51.1761020000,16.8335630000
2479,12717,"KOZANÓW",51.1378201300,16.9679529700
2516,17512,"Rdestowa",51.1109372600,16.8907686000
2531,10531,"pl. Orląt Lwowskich",51.1076744900,17.0210016700
2535,25312,"Arabska",51.0511130000,17.0924260000
281,11712,"FAT",51.0941263200,16.9783528000
283,11724,"Aleja Pracy",51.0922586200,16.9864164100
289,11747,"BLACHARSKA",51.0821010900,16.9896025300
299,11722,"Inżynierska",51.0945401200,16.9919639100
301,111403,"Stalowa",51.0994800000,17.0004600000
304,10386,"Grabiszyńska",51.1012382500,17.0137498600
305,10385,"Grabiszyńska",51.1015952500,17.0131843500
306,11536,"Krucza",51.0921559300,17.0084854600
313,11532,"Zaporoska",51.0969611100,17.0156446500
316,11336,"Pl. Hirszfelda",51.0938214700,17.0179590500
318,11346,"Rondo",51.0916681300,17.0158075500
319,11345,"Rondo",51.0916774800,17.0162404300
322,11342,"Uniwersytet Ekonomiczny",51.0895357800,17.0272791700
330,11357,"Skierniewicka",51.0776501400,17.0144646000
331,11358,"Skierniewicka",51.0781529100,17.0149210000
332,11356,"Jarzębinowa",51.0812965700,17.0165659600
333,11355,"Jarzębinowa",51.0819217600,17.0167110800
334,16521,"Wyścigowa",51.0697063400,17.0120504400
345,26316,"Strachowskiego",51.0582375000,17.0156518200
349,26314,"Ołtaszyn",51.0565016200,17.0249606900
350,26313,"Ołtaszyn",51.0567868000,17.0237901600
357,26304,"Wojszyce",51.0658319400,17.0323988000
375,82024005,"Kwiatkowskiego",51.0586395200,16.9546394300
381,16702,"Kościelna",51.0638818600,16.9838994700
384,16502,"Zimowa",51.0713285300,17.0000093600
385,16501,"Zimowa",51.0720232900,17.0008125600
391,16515,"Chłodna",51.0751223400,16.9966708600
393,16514,"Sowia",51.0737487700,17.0016200900
402,17114,"Adamieckiego",51.0742591700,16.9629950300
403,17103,"Wiejska",51.0781745600,16.9641083500
424,25132,"Brochowska",51.0690124800,17.0948041300
441,21156,"Gazowa",51.0782827300,17.0688517100
442,21155,"Gazowa",51.0781518200,17.0704111800
453,121024,"Krynicka",51.0796854400,17.0506705600
458,121012,"Kamienna",51.0861830000,17.0468820000
481,21106,"Śliczna",51.0857054600,17.0353824900
501,11332,"EPI",51.0976473400,17.0290176200
516,20324,"Świstackiego",51.0995585900,17.0508984700
518,120215,"Na Niskich Łąkach",51.0970555300,17.0554487900
553,24504,"Tramwajowa",51.1042905300,17.0838771700
564,24517,"Bacciarellego",51.1056363100,17.1104913100
580,24724,"Miłoszycka",51.1162088100,17.1277179000
596,24725,"Ceglana",51.1211410800,17.1210400600
602,24114,"Kwidzyńska",51.1315845700,17.0779541400
603,24132,"Kwidzyńska",51.1305853100,17.0783376700
613,24112,"KROMERA",51.1323779400,17.0630109500
614,20724,"Mosty Warszawskie",51.1280013700,17.0548583700
632,23722,"Redycka",51.1486843000,17.0755699000
634,23720,"Poprzeczna",51.1457814400,17.0729631000
640,20718,"Trzebnicka",51.1279170600,17.0363428100
643,23172,"Bałtycka",51.1371797200,17.0294499300
644,23143,"Bałtycka",51.1382819000,17.0293741400
645,23161,"Mochnackiego",51.1419850600,17.0366010800
647,23124,"Kamieńskiego",51.1395609400,17.0327146700
651,23113,"Różanka",51.1395030400,17.0216930800
663,23304,"Jarocińska",51.1419203400,16.9906040500
668,23149,"Paprotna",51.1481809800,17.0206268600
674,23508,"Kominiarska",51.1689266600,16.9971452000
686,23526,"Lekarska",51.1604309900,17.0273655700
696,21370002,"Szymanów - skrzyż.",51.1884068400,17.0305035300
698,23164,"Jutrosińska",51.1470221400,17.0419950600
699,23556,"Ługowa",51.1587789600,17.0444394600
701,23553,"Kątowa",51.1561942400,17.0443834300
707,24108,"C.H. Korona",51.1411042300,17.0876502100
728,29509,"ZAKRZÓW",51.1620125300,17.1246901200
730,29521,"Królewska",51.1555519900,17.1292482700
754,29132,"KIEŁCZOWSKA (LZN)",51.1467764000,17.1209557100
761,29315,"Żmudzka",51.1446806500,17.1409566500
766,29302,"Palacha",51.1405715000,17.1264309300
774,31917012,"Kiełczów - osiedle",51.1325442000,17.1725084400
777,31917013,"Kiełczów - WODROL",51.1350471000,17.1756849600
780,23712,"Kasprowicza",51.1380070600,17.0537191700
784,11537,"Gajowicka",51.0890964900,17.0067361200
786,12520,"KUŹNIKI (Stacja kolejowa)",51.1262355100,16.9548581600
788,12718,"KOZANÓW",51.1375588400,16.9688781200
789,17505,"Przybyły",51.1089846600,16.9171314200
2538,25320,"Ziemniaczana",51.0540500400,17.0923042200
2544,12002,"Wrocławski Park Przemysłowy",51.1125054600,16.9934106100
2548,24214,"SĘPOLNO",51.1142851200,17.1038941200
2549,21022,"TARNOGAJ",51.0785056000,17.0639519700
2579,12544,"Bystrzycka",51.1240088700,16.9590017800
2695,29320,"Inflancka",51.1423583500,17.1304153200
2711,29322,"Szewczenki",51.1417660700,17.1233520500
2723,10526,"pl. Strzegomski (Muzeum Współczesne)",51.1142438800,17.0063843300
2726,10405,"pl. Strzegomski (Muzeum Współczesne)",51.1131478100,17.0069625800
2733,11378,"Pułtuska",51.0745575000,17.0164437100
2739,716718,"AUCHAN",51.0520648000,16.9740535400
2741,10051,"Park Staromiejski",51.1051252500,17.0368984900
2744,25134,"KSIĘŻE WIELKIE",51.0698331700,17.0975348800
2747,425900,"WOJNÓW (pętla)",51.0959014800,17.1659679400
2776,17516,"Graniczna (Strachowicka)",51.1108012000,16.8985760300
2816,10366,"Arkady (Capitol)",51.1020390600,17.0298365300
2818,10234,"Arkady (Capitol)",51.1009390900,17.0289667400
2828,29104,"Psie Pole",51.1458317400,17.1114350500
2865,110005,"Rynek",51.1112028100,17.0270362800
2870,23309,"RĘDZIN",51.1661503100,16.9667358800
2882,20313,"pl. Wróblewskiego",51.1060485300,17.0463805200
2894,12610,"KOZANÓW (Dokerska)",51.1411263700,16.9640126500
2919,21159,"Złotostocka",51.0771464300,17.0603034800
2952,18352,"Eluarda",51.1465010000,16.8672910000
2954,110221,"Wzgórze Partyzantów",51.1043060000,17.0374230000
2959,10222,"Wzgórze Partyzantów",51.1036847000,17.0372823900
2968,11613,"GRABISZYŃSKA (Cmentarz II)",51.0876603500,16.9754436600
2998,18116,"Fieldorfa (Szpital)",51.1441460000,16.9067010000
3007,18015,"Kosmonautów (Szpital)",51.1418512000,16.9058691900
3017,31480003,"Stępin",51.2084830100,17.2808881800
3019,25121,"Sosnowiecka",51.0704598600,17.0915432900
3024,31920013,"Pietrzykowice",51.1233340200,17.2323170500
3027,31920012,"Śliwice",51.1291986500,17.2132224700
3045,29553,"Przebiśniegowa",51.1729953000,17.1135440100
3053,17315,"Trawowa",51.0970587400,16.9505113100
3070,23313,"Witkowska",51.1476971300,16.9885244600
3073,26329,"Husarska",51.0601287200,17.0020983500
3099,10016,"Zamkowa",51.1078851200,17.0297110100
3106,21130,"PETRUSEWICZA",51.0918218500,17.0328499500
3111,17317,"Zagony",51.1008794200,16.9422415200
3123,23522,"POŚWIĘTNE",51.1506673500,17.0289560400
3126,23021,"POŚWIĘTNE",51.1502881500,17.0287073600
3129,23515,"ŚWINIARY",51.1966424300,16.9751508700
3131,12738,"KOZANÓW",51.1373875700,16.9688367700
3146,10500,"PL. JANA PAWŁA II",51.1127054200,17.0206180700
3183,11734,"OPORÓW",51.0841500000,16.9718980000
3185,87511,"Strachowice General Aviation",51.1050111500,16.8990643000
3186,87509,"Zarembowicza",51.1079164721,16.8994299885
3207,21370006,"Psary - Parkowa",51.1825776200,17.0401928000
3215,23019,"Wołowska",51.1473691300,17.0302713100
3220,18105,"Kamiennogórska (Ośrodek dla niewidomych)",51.1428464200,16.8989182700
3222,18147,"Małopolska (Ośrodek dla niewidomych)",51.1378757500,16.8977163500
3232,18150,"Małopolska (Ośrodek dla niewidomych)",51.1379593000,16.8986702800
3235,17300,"Muchobór Wielki (Roślinna)",51.1017633000,16.9440311900
3239,24120,"KOWALE",51.1289588800,17.1016547400
3246,29544,"Odrodzenia Polski",51.1640718700,17.1258392200
3255,17128,"TYNIECKA (pętla)",51.0759615900,16.9528937500
3272,50000062,"TRESTNO (pętla)",51.0757713300,17.1453628500
3291,50000053,"Starodworska",51.0738100000,17.1085530000
3383,10241,"Narodowe Forum Muzyki",51.1078990000,17.0262940000
3385,110241,"Narodowe Forum Muzyki",51.1078990000,17.0262940000
3386,17722,"Jarnołtowska (Samotworska)",51.1200838600,16.8502475600
3414,11354,"Sudecka",51.0856654900,17.0166093600
3420,29130,"Psie Pole (Rondo Lotników Polskich)",51.1470932900,17.1166665500
3453,11523,"Krucza (Mielecka)",51.0934121100,17.0037653100
3462,24324,"Godebskiego (AWF Wrocław)",51.1137886000,17.0964813200
3471,90336012,"Wilkszyn - Miłoszyn",51.1843236000,16.8710786000
3481,90336005,"Pisarzowice - Odrzańska",51.2050515000,16.8524908000
3484,90336007,"Pisarzowice - Graniczna",51.1972415000,16.8548221000
3488,11548,"Rymarska",51.0795436600,16.9928431800
3512,20362,"DWORZEC GŁÓWNY",51.0991877800,17.0343344100
3519,20364,"DWORZEC GŁÓWNY",51.0992241900,17.0341040100
519,20326,"Na Niskich Łąkach",51.0972808300,17.0554890900
524,25102,"Krakowska",51.0927741200,17.0611202900
525,25101,"Krakowska",51.0925743300,17.0609456000
526,25501,"Rakowiecka",51.0971037900,17.0676725800
527,25502,"Rakowiecka",51.0972313700,17.0682385200
538,25511,"OPATOWICE",51.0947761500,17.1294841700
539,85512,"OPATOWICE",51.0947990400,17.1295833500
544,10102,"Świdnicka",51.1070220600,17.0328506700
545,10101,"Świdnicka",51.1074325500,17.0327321000
547,10123,"GALERIA DOMINIKAŃSKA",51.1080193600,17.0373825200
557,24514,"Okrzei",51.1064282400,17.0984639600
558,24513,"Okrzei",51.1063521200,17.0992530800
559,24512,"Partyzantów",51.1063131700,17.0920731300
560,24511,"Partyzantów",51.1062613800,17.0939924100
561,24505,"Spółdzielcza",51.1021113700,17.1023814200
562,24506,"Spółdzielcza",51.1019015100,17.1026888100
567,24707,"Swojczyce",51.1145818000,17.1288162200
568,24708,"Swojczyce",51.1147904000,17.1281076700
571,24701,"Monopolowa",51.1153852900,17.1116342900
572,24702,"Monopolowa",51.1154619200,17.1112129300
575,24316,"SĘPOLNO",51.1137701100,17.1037905700
577,24521,"Libelta",51.1094591600,17.1084175700
578,24522,"Libelta",51.1100021200,17.1086767900
581,24709,"Niedziałkowskiego",51.1087563000,17.1396307100
585,24714,"Smocza",51.1033559900,17.1547421600
586,24713,"Smocza",51.1027417100,17.1554044800
601,24123,"Tczewska",51.1306065700,17.1119496900
605,24133,"Brücknera",51.1384525600,17.0817861900
606,24134,"Brücknera",51.1385841700,17.0814245700
609,24306,"Zacisze",51.1243518300,17.0778218200
610,24305,"Zacisze",51.1241929000,17.0782392700
615,20722,"Wyszyńskiego",51.1226808900,17.0525753700
616,20721,"Wyszyńskiego",51.1227988000,17.0528858000
630,23718,"Koszarowa",51.1402692700,17.0698749100
639,23131,"Broniewskiego",51.1358510100,17.0373830600
642,23144,"Bałtycka",51.1366318700,17.0306168000
652,23111,"Łużycka",51.1361168900,17.0166050300
3521,10223,"DWORZEC GŁÓWNY",51.1007290600,17.0360707800
3524,20267,"DWORZEC GŁÓWNY",51.0996462200,17.0372634900
3526,120268,"DWORZEC GŁÓWNY",51.0996017400,17.0354003900
3527,11339,"Dworzec Główny (Stawowa)",51.0993718800,17.0333822100
3539,23565,"Tymiankowa",51.1756945100,16.9937638700
3541,23563,"Cynamonowa",51.1758986000,16.9983129700
3545,21004,"Joannitów",51.0938758800,17.0345325400
3548,24730,"Gospodarska",51.1181289700,17.1243558100
3566,17133,"Kadłubka",51.0764765300,16.9686605800
3568,17136,"Stanki",51.0761614600,16.9738343600
3569,17138,"Bukowskiego",51.0764904300,16.9775937700
3585,31909010,"Łozina - Nowego Osiedla II",51.2332024700,17.1650437800
3587,31909009,"Łozina - Nowego Osiedla II",51.2332079900,17.1635124600
3597,30098013,"Mirków - Jagiellońska",51.1675321700,17.1643626000
3599,30098011,"Mirków - Sportowa",51.1634077900,17.1572986300
3606,30368002,"Długołęka - Wiejska",51.1750964800,17.1799630600
3608,31917003,"Wilczyce - Borowa",51.1300661700,17.1506207600
3610,31917005,"Wilczyce - Dworska",51.1293687300,17.1550406900
3619,31918007,"Kamień - skrzy.",51.1670032400,17.2192665200
3622,31921003,"Raków II",51.1690342300,17.2775475500
3629,30368008,"Byków - Ogrodowa",51.1907642100,17.2347376700
3631,31341014,"Długołęka - Parkowa/skrzy.",51.1788996000,17.1904349000
3639,31921008,"Raków IV",51.1556914100,17.2744498300
3641,31920008,"Kiełczów - pętla/Wrocławska",51.1394209800,17.1800344300
3646,31371015,"Pasikurowice - Energetyczna",51.2140019900,17.1098455100
3651,31371016,"Pasikurowice - cmentarz",51.2056802100,17.1009063400
3661,32617902,"Michałowice Skrzyżowanie",51.2359550300,17.2198430900
3662,31341004,"Łosice - plac zabaw",51.2166976000,17.2038977500
3668,31910003,"Bukowina - skrzy.",51.2048768500,17.1532228500
3670,31453020,"Bukowina - skrzy.",51.2045928000,17.1536755700
3671,31907001,"Krakowiany - skrzy.",51.2639650500,17.1902427500
3689,31921002,"Raków I",51.1699461100,17.2776362500
3692,30368010,"Byków - Jaśminowa",51.1923120900,17.2474286600
3697,31919005,"Raków - osiedle",51.1668255600,17.2703164200
3700,31921006,"Raków III",51.1580114900,17.2726919300
3704,31371003,"Godzieszowa (na wys. nr 8)",51.2385020900,17.1281029800
3713,31453011,"Łozina - Milicka/szkoła",51.2347397500,17.1813188000
3715,31920004,"Kiełczów - Biedronka",51.1428357400,17.1648719200
3734,31371009,"Pasikurowice - Wrocławska (na wys. nr 14)",51.2154030100,17.1110910300
3736,31921004,"Raków II",51.1689016400,17.2771496900
3737,31909001,"Siedlec - skrzy. Osiedlowa",51.2340497600,17.1214810200
3760,21108,"Działkowa",51.0783962000,17.0342315100
3761,23511,"Perzowa",51.1772366000,16.9908897400
3762,18516,"Maślicka (Osiedle)",51.1474924300,16.9477391900
3764,18327,"Rodła",51.1247949300,16.8635310600
3769,11325,"Zaolziańska",51.0980482000,17.0254733100
3770,23512,"Perzowa",51.1767501800,16.9914169300
3777,23533,"Kominiarska (plac sportowy)",51.1750723900,17.0113574400
3799,17714,"Jasińskiej",51.1208448000,16.8766394500
3823,17110,"Awicenny",51.0883341100,16.9523855800
3840,23538,"Lawendowa",51.1698500000,17.0002730000
3861,17123,"Jordanowska",51.0786919500,16.9564127400
3862,91606005,"Lutynia I",51.1357120000,16.7717810000
3864,91606007,"Lutynia - Kolonia",51.1317530000,16.7560500000
3869,91606011,"Łowęcice - Staw",51.1214340000,16.7404210000
3870,91606003,"Lutynia - Straż",51.1349680000,16.7830974900
3875,21109,"Borowska (Szpital)",51.0747253300,17.0325481300
3881,29326,"LITEWSKA",51.1423253700,17.1278740000
3890,11304,"Hallera",51.0868153700,17.0129105300
3892,21145,"Bardzka",51.0827794400,17.0508081600
3894,21173,"Bardzka",51.0822302500,17.0492639300
3895,23733,"pl. Daniłowskiego",51.1388105400,17.0603017700
3904,11210,"Hallera",51.0859918300,17.0117324300
3918,24704,"Kolumba",51.1141008400,17.1170798400
3928,11543,"Modlińska",51.0816957000,17.0006320000
3930,18504,"Rędzińska (Cmentarz)",51.1488387700,16.9455355700
3931,18528,"Królewiecka (Park)",51.1482167800,16.9307749700
3933,11549,"RACŁAWICKA",51.0773950000,16.9839380000
3943,90094006,"Błonie",51.1587250000,16.7474600000
3944,90094007,"Źródła",51.1596810000,16.7248520000
3956,91048792,"Żurawiniec",51.1761940000,16.8118080000
3958,92060008,"Lubiatów",51.2255390000,16.6958530000
3960,92060010,"Zabór Mały",51.2192130000,16.7032430000
3967,92056004,"Gąsiorów",51.2425877100,16.7411200400
3970,92056008,"Białków",51.2151047900,16.7653588200
3978,92056015,"Miękinia Cegielnia",51.1883150000,16.7246340000
3982,92056018,"Kadłub NŻ",51.1829510000,16.7045860000
3985,92056019,"Kadłub wieś",51.1747220100,16.6967984800
4007,92055003,"Wilkostów",51.2159390000,16.8052910000
4013,92052002,"Księginice - skrzyż. Warzyna",51.2434731200,16.7655735700
4026,92058003,"Mrozów - Wyzwolenia",51.1881490000,16.7862820000
4031,17731,"Piołunowa",51.1219120000,16.8795080000
4039,10383,"Tęczowa",51.1056127300,17.0149223500
4040,10248,"Kolejowa",51.1031035400,17.0166681200
4044,17712,"Jerzmanowo (Cmentarz I)",51.1241088600,16.8860090600
4049,17742,"Jerzmanowo (Cmentarz)",51.1247202000,16.8888032200
4051,26105,"Malinowskiego",51.0619484900,17.0550172200
4066,18404,"Dworska",51.1435069800,16.9545254200
4101,21164,"Wapienna",51.0871631900,17.0423939600
4109,18547,"Maślicka (Staw)",51.1560693000,16.9359172300
4121,21143,"Widna",51.0862699700,17.0448769600
4126,18739,"Arachidowa",51.1545118600,16.8977401800
4128,18018,"Aleja Architektów",51.1388187100,16.9290586600
4130,18131,"Aleja Architektów",51.1390923700,16.9286170800
4136,18548,"Maślicka (Staw)",51.1558348200,16.9360387600
4163,92052013,"Brzezina - ul. Chrobrego",51.2015223000,16.8347398000
4165,91607004,"Ferma - stadnina koni",51.1182359000,16.8258072000
4172,91048982,"Lutynia Osiedle ul. Wschodnia",51.1382060000,16.7962540000
4180,91048801,"Głoska - ul. Średzka",51.2399080000,16.7212840000
4185,92052006,"Prężyce przy posesji nr 22",51.2381783200,16.8185344700
4187,92052008,"Gosławice - przejazd PKP",51.2237590000,16.8261190000
4195,91048864,"Brzezinka Średzka - ul. Parkowa",51.2161160000,16.8252220000
4196,90000001,"Brzezina - Kościół",51.2022870000,16.8327620000
4203,32103,"Dolnośląska Szkoła Wyższa",51.1122370000,16.9899220000
4213,21370009,"Szymanów (Widawska)",51.1910930000,17.0276120000
4256,31922004,"Kiełczówek - Sielska Zagroda",51.1237185000,17.1752099400
4260,31918012,"Kamień - skrzy. Kryształowa",51.1635560000,17.2153410000
4263,51934005,"Trestno - świetlica",51.0816340000,17.1455970000
4268,51934004,"Trestno - kościół",51.0802990000,17.1451170000
4269,10539,"Strzegomska (Muzeum Współczesne)",51.1124580000,17.0052040000
4275,61972010,"Żórawina - skrzy.",50.9810347800,17.0355106300
4277,61955007,"Szukalice",50.9984042600,17.0056120700
4280,61955004,"Karwiany - skrzy. (Wrocławska/Majowa)",51.0213948600,17.0038265500
4282,71955001,"Wysoka - Lipowa",51.0456862800,17.0146127100
4283,61954003,"Suchy Dwór - skrzy. (Wrocławska/Główna)",51.0190078200,17.0359187100
4285,61954005,"Suchy Dwór - skrzy. Mędłów",51.0067634200,17.0376398000
4288,61972005,"Żórawina - osiedle",50.9876323900,17.0121112600
4291,61953001,"Rzeplin - Al. Lipowa ",51.0032407300,17.0187951600
4295,61972007,"Żórawina - Orange",50.9846313000,17.0235890100
4376,50395001,"Iwiny - rondo",51.0450972700,17.0608687900
4377,51934001,"Mokry Dwór - Starodworska",51.0712800000,17.1173540000
4379,51935003,"Iwiny - Brochowska/Polna",51.0469960000,17.0819180000
4390,70008004,"Bielany Wrocławskie - Kościół",51.0400724800,16.9690615300
4393,71951008,"Ślęza - autostrada",51.0428572700,16.9912595800
4395,71951001,"Bielany Wrocławskie - skrzyżowanie",51.0390096000,16.9719273700
4401,723953,"Wysoka - Radosna",51.0487544000,17.0002200500
4403,71951003,"Bielany Wrocławskie - PKP",51.0382056000,16.9753721500
4404,723956,"Wysoka - Chabrowa",51.0473400000,17.0064890000
4411,71951012,"Ślęza - Dębowa",51.0391197200,16.9868297500
4412,71951011,"Ślęza - Szyszkowa",51.0393486000,16.9870605400
4421,31453003,"Węgrów (na wys. nr 7)",51.2655658400,17.2203788800
4424,31911002,"Kępa (na wys. nr 36)",51.2404392700,17.2000694500
4426,31911007,"Kępa (na wys. nr 36)",51.2405782800,17.1995325000
4432,31917019,"Wilczyce - Wrocławska (na wys. nr 1F)",51.1319180100,17.1454771100
4433,80370008,"Mokronos Dolny - Stawowa/Szczęśliwa",51.0712539500,16.9333234300
4439,20359031,"Psary - Wolności",51.1841860000,17.0286730000
4445,20359029,"Psary - Szkoła",51.1871461600,17.0307597400
4450,12115,"Fabryczna",51.1124933800,16.9826090500
4452,12117,"Otyńska",51.1128010000,16.9771780000
4453,32104,"Dolnośląska Szkoła Wyższa",51.1121280000,16.9905170000
4458,80347019,"Mokronos Dolny - Parkowa/Stawowa",51.0711660000,16.9384370000
4459,80347015,"Jaszkotle - kościół",51.0571050000,16.9018410000
4463,80370005,"Mokronos Górny - Wrocławska/Gwarna",51.0757510000,16.9165200000
4474,81071831,"Smolec - Chłopska/Cisowa",51.0806570000,16.8972720000
4485,81072081,"Smolec - Wiśniowa",51.0883420000,16.9081630000
4490,82021004,"Kębłowice",51.0869960000,16.8516270000
4494,82021002,"Skałka - skrzy. W362",51.0898754200,16.8286763000
4497,82018001,"Skałka - skrzy. Małkowice",51.0893660000,16.8327340000
4503,81071863,"Gądów - Świerkowa",51.0469730000,16.9109960000
4509,82021008,"Krzeptów - Dolina Krzeptowa",51.0922680000,16.8925230000
4510,31453004,"Węgrów (na wys. nr 7)",51.2650558300,17.2203044200
4511,82018003,"Małkowice - Główna",51.0769870000,16.8236540000
4524,30440005,"Borowa - skrzy.",51.1945381000,17.2799901000
4535,32913102,"Domaszczyn - Wrocławska sklep",51.1901070200,17.1707040200
4538,32696604,"Wilczyce - Wilczycka (Clarena)",51.1158299400,17.1710698300
4540,32623608,"Domaszczyn - Stawowa",51.1889224900,17.1504650200
4546,32627501,"Brzezia Łąka - Główna",51.1226151200,17.2649085400
4548,32911805,"Domaszczyn - Wrocławska Skrzyżowanie",51.1878746900,17.1532456100
4571,110276,"Dworzec Świebodzki",51.1088572400,17.0182839900
4587,29109,"Bierutowska",51.1537872200,17.1363615100
4590,29112,"BIERUTOWSKA (Wiadukt)",51.1581934000,17.1465465800
4594,29126,"Bierutowska 65",51.1522052400,17.1317055300
4597,31453023,"Domaszczyn - Trzebnicka",51.1960009100,17.1518259500
4622,92052029,"Brzezina - Biedronka",51.1870815200,16.8329575500
4626,20334,"Dworzec Główny (Dworcowa)",51.1011491900,17.0400173600
4661,29307,"Kurlandzka",51.1365030000,17.1348450000
4670,23531,"Konopackiej",51.1696373700,17.0241751700
4678,82026004,"Nowa Wieś Wr. - pętla",51.0455380000,16.9185100000
4685,10276,"Dworzec Świebodzki",51.1088572400,17.0182839900
4694,10410,"Smolecka",51.1107290000,17.0068330000
4700,20638,"Daszyńskiego",51.1274660000,17.0477840000
4703,18313,"Serowarska",51.1433995100,16.8638031000
4705,110414,"Śrubowa",51.1117693600,17.0016787600
4706,17120,"Awicenny (Poczta Polska)",51.0867270400,16.9493084100
4712,82026002,"Nowa Wieś Wr. - Relaksowa (na wys. nr 13)",51.0437090000,16.9104930000
4715,23135,"Syrokomli",51.1373030000,17.0488920000
4737,23506,"Pełczyńska (Stacja kolejowa)",51.1659480200,16.9985915600
4748,10538,"PL. SOLIDARNOŚCI",51.1134095900,17.0179614400
4768,32138,"NOWY DWÓR (pętla)",51.1191000000,16.9530890000
4772,20304,"Urząd Wojewódzki (Muzeum Narodowe)",51.1099125400,17.0476905200
4773,20203,"pl. Zgody (Muzeum Etnograficzne)",51.1006036700,17.0533173300
4784,12114,"Strzegomska 148",51.1144501700,16.9722564800
4790,32144,"Nowy Dwór (Stacja kolejowa)",51.1196690000,16.9535930000
4802,18402,"TARCZYŃSKI ARENA (Królewiecka)",51.1435003800,16.9503300900
4804,18502,"TARCZYŃSKI ARENA (Królewiecka)",51.1440074700,16.9496930400
4806,18014,"Tarczyński Arena (Lotnicza)",51.1371491800,16.9410612900
4813,80362014,"Skałka",51.0927986300,16.8290901100
4822,17320,"Zagony",51.0998060000,16.9414720000
4825,16510,"Partynice (tor wyścigów konnych)",51.0615495600,16.9976446200
4845,23504,"Ostowa (Muzeum Militarne)",51.1625585900,17.0024157900
4868,10656,"Dmowskiego",51.1171200000,17.0255720000
4875,70161003,"Biskupice Podg. LG Innotek",51.0183830200,16.8888320900
4898,20824,"PL. GRUNWALDZKI",51.1114443500,17.0599596100
4901,10556,"Dmowskiego",51.1163640000,17.0245190000
4906,120619,"DWORZEC NADODRZE",51.1244598400,17.0340372600
4921,24210,"8 Maja",51.1136691900,17.0911197100
5109,23510,"Lipa Piotrowska",51.1738222500,16.9942273300
5126,21147,"Tarnogajska",51.0835254100,17.0597123500
816,120613,"Paulińska",51.1202896900,17.0354275900
820,120666,"Słowiańska",51.1235198900,17.0404949400
822,120626,"Jedności Narodowej",51.1215483000,17.0435518200
827,120670,"Wyszyńskiego",51.1219167500,17.0530296500
833,120853,"Piastowska",51.1162080000,17.0609890100
837,124421,"Mickiewicza",51.1085166800,17.0726607600
839,110024,"Hala Targowa",51.1126015000,17.0394897500
848,110232,"Renoma",51.1037838900,17.0307293200
854,121008,"Gajowa",51.0919384600,17.0400436800
857,125007,"Park Wschodni",51.0848852000,17.0722915500
869,110256,"pl. Orląt Lwowskich",51.1075072300,17.0222719100
885,18301,"LEŚNICA",51.1455383300,16.8703672200
898,11728,"Fiołkowa",51.0930791900,16.9782840400
899,26326,"Malinowa",51.0667177400,17.0105562100
900,26325,"Malinowa",51.0669667400,17.0105973600
902,12322,"DH Astra",51.1278478600,16.9759912400
910,18302,"LEŚNICA",51.1451806200,16.8719948600
924,11374,"Wiśniowa",51.0844577800,17.0256820800
927,11371,"Uniwersytet Ekonomiczny",51.0902433500,17.0286277000
940,24721,"Mikołowska",51.1107977500,17.1368036600
944,10378,"Grabiszyńska",51.1024614800,17.0145108900
947,24135,"KOWALE",51.1279605800,17.1025343200
951,18517,"Śliwowa",51.1549000800,16.9389934200
978,10372,"pl. Orląt Lwowskich",51.1065124400,17.0217420800
985,24300,"Śniadeckich",51.1201108800,17.0779987400
987,24127,"Kowalska",51.1290113100,17.1136299400
994,18530,"Brodzka",51.1581602600,16.9223663000
997,20322,"Komuny Paryskiej",51.1015229100,17.0474334700
1004,110104,"Rynek",51.1119120000,17.0271840000
1018,18736,"Marszowicka",51.1631676200,16.8785105900
1031,20318,"pl. Wróblewskiego",51.1042237600,17.0483492600
1036,31341009,"Szczodre - Szkoła",51.1981127400,17.1896107900
1041,11719,"GRABISZYŃSKA (Cmentarz)",51.0899037700,16.9766420300
1047,25146,"Blizanowicka",51.0760609100,17.0924123800
1061,20920,"PL. GRUNWALDZKI",51.1119811200,17.0640336100
1092,31919004,"Bielawa",51.1599867800,17.2523457900
1114,26336,"Świt",51.0607979800,17.0268987000
1124,18723,"Wilkszyńska",51.1735436700,16.8866726600
1361,16406,"Braterska",51.0676164600,16.9995540000
1362,16405,"Braterska",51.0676757400,16.9992089800
1365,20630,"Mosty Warszawskie",51.1284732000,17.0545791400
1366,20629,"Mosty Warszawskie",51.1283805300,17.0546427100
1368,20826,"Bujwida",51.1136337600,17.0674990400
1371,24409,"Chełmońskiego",51.1037567200,17.0909274100
1397,11001,"DWORZEC AUTOBUSOWY",51.0971226700,17.0326441800
1398,21002,"DWORZEC AUTOBUSOWY",51.0974641500,17.0327766200
1409,11606,"FAT",51.0947030200,16.9809392200
1410,11605,"FAT",51.0947666500,16.9807672900
1411,11607,"Fiołkowa",51.0921059300,16.9774910100
1412,11608,"Fiołkowa",51.0922952900,16.9777138000
1413,11452,"Gajowicka",51.0881765000,17.0056747900
1414,11451,"Gajowicka",51.0879790300,17.0067096800
1419,10031,"GALERIA DOMINIKAŃSKA",51.1076112400,17.0396368400
1420,10032,"GALERIA DOMINIKAŃSKA",51.1076956300,17.0396649200
1421,24011,"Gęsia",51.1318492300,17.0881661100
1422,24012,"Gęsia",51.1318919400,17.0877611800
1428,20804,"Górnickiego",51.1163345900,17.0558727900
1431,18003,"Grabowa",51.1399247800,16.9209347400
1432,18004,"Grabowa",51.1397749600,16.9213887800
1446,11603,"Hutmen",51.0961266800,16.9859878700
1453,20626,"Jedności Narodowej",51.1215486000,17.0434567500
1466,24205,"Karłowicza",51.1169144700,17.0860589900
1467,24206,"Karłowicza",51.1170462900,17.0864598500
1474,23018,"Kępińska",51.1442050600,17.0310752200
1475,23017,"Kępińska",51.1442188300,17.0312330000
1488,24222,"Kopernika",51.1124498000,17.0854671100
1496,11215,"KRZYKI",51.0747356600,17.0070886800
1497,11216,"KRZYKI",51.0748613600,17.0072281800
1510,12204,"Małopanewska",51.1236660200,16.9877389400
1511,12203,"Małopanewska",51.1238940800,16.9874667700
1512,24422,"Mickiewicza",51.1084091800,17.0717206700
1527,20628,"Nowowiejska",51.1242391400,17.0448911000
1528,20627,"Nowowiejska",51.1243609700,17.0451328100
1542,10244,"pl. Legionów",51.1043557400,17.0216153800
1549,20200,"pl. Wróblewskiego",51.1060456400,17.0467674800
1154,10377,"pl. Legionów",51.1041647100,17.0201090300
1158,11539,"Gajowicka",51.0884453400,17.0054643500
1159,11376,"Jaworowa",51.0817118000,17.0231520600
1176,20905,"pl. Bema",51.1169782400,17.0433691400
1179,120805,"Piastowska",51.1157847500,17.0601889900
1180,24532,"Mickiewicza",51.1092717900,17.0747493600
1185,23717,"Koszarowa",51.1403086600,17.0701030500
1186,23719,"Poprzeczna",51.1466086000,17.0741987400
1188,24105,"Brücknera",51.1391682700,17.0808060300
1189,24124,"Tczewska",51.1314645800,17.1111700100
1191,29305,"Mroźna",51.1349244300,17.1379010400
1202,31911004,"Kępa",51.2384501300,17.2097710000
1210,24526,"Piramowicza",51.1029892700,17.0969646500
1214,11716,"Ostrowskiego",51.0957226000,16.9728473700
1218,21125,"Kamienna",51.0849903800,17.0479730000
1238,24318,"Stadion Olimpijski",51.1169679400,17.0902603800
1240,12150,"Wrocławski Park Technologiczny",51.1061153700,16.9706863800
1244,20931,"Katedra",51.1141993800,17.0507981200
1251,12505,"PILCZYCE",51.1364290200,16.9505078100
1253,20316,"Na Niskich Łąkach",51.0967310000,17.0571210000
1258,29928,"Żmudzka",51.1454580000,17.1420770000
1265,17118,"Marchewkowa",51.0666983100,16.9741725200
1276,24519,"Monte Cassino",51.1060319300,17.1055154300
1282,16519,"Radio i Telewizja",51.0718578200,17.0060188100
1284,16507,"Zimowa",51.0706457900,16.9987564900
1297,31920021,"Kątna",51.1326714700,17.2835237400
1309,12529,"Na Ostatnim Groszu",51.1225531600,16.9748399600
1312,120628,"Nowowiejska",51.1242394000,17.0449878900
1330,10126,"GALERIA DOMINIKAŃSKA",51.1067085200,17.0382709500
1352,25006,"Armii Krajowej",51.0868913000,17.0693732600
1359,24013,"Bociania",51.1297322500,17.0980540600
1364,23013,"Broniewskiego",51.1353940300,17.0364704500
1372,24410,"Chełmońskiego",51.1038835600,17.0907119500
1375,11609,"GRABISZYŃSKA (Cmentarz)",51.0903792900,16.9767377500
1379,20632,"Daszyńskiego",51.1267406800,17.0484465900
1388,20612,"Dubois",51.1170930400,17.0339673900
1408,11659,"FAT",51.0942408000,16.9803286000
1552,10256,"pl. Orląt Lwowskich",51.1075072300,17.0222719100
1553,10255,"pl. Orląt Lwowskich",51.1077801400,17.0221312500
1561,20613,"Paulińska",51.1202902400,17.0353334500
1580,10402,"PL. JANA PAWŁA II",51.1118939500,17.0206968500
1581,10401,"PL. JANA PAWŁA II",51.1120850000,17.0204875700
1596,10654,"Pomorska",51.1180575100,17.0305601700
1610,20814,"Reja",51.1124493500,17.0568663400
1616,10004,"Rynek",51.1097681800,17.0267142700
1617,10003,"Rynek",51.1110477400,17.0269635300
1628,24207,"Stadion Olimpijski",51.1168749500,17.0898967300
1630,11404,"Stalowa",51.0996657800,17.0016518700
1635,10414,"Śrubowa",51.1117693600,17.0016787600
1643,24407,"Tramwajowa",51.1043278700,17.0842120400
1644,24408,"Tramwajowa",51.1044667800,17.0846699700
1684,24416,"BISKUPIN",51.1012572600,17.1091415100
1703,31453018,"Bąków",51.2119353200,17.1594618000
1719,11731,"GRABISZYŃSKA (Cmentarz II)",51.0881142100,16.9756586800
1731,32619201,"Bukowina",51.2107663100,17.1401239400
1753,120822,"most Grunwaldzki",51.1101360600,17.0550925200
1762,25514,"Zalewowa",51.0908089200,17.1345731600
1800,23102,"most Osobowicki",51.1330231600,17.0261839300
1820,29505,"Przedwiośnie (Stacja kolejowa)",51.1604270700,17.1224171100
1865,17312,"MIŃSKA (Rondo Rotm. Pileckiego)",51.1060820400,16.9501998000
1869,20610,"DWORZEC NADODRZE",51.1243144200,17.0350332100
1870,120609,"DWORZEC NADODRZE",51.1241886500,17.0351198500
1871,120610,"DWORZEC NADODRZE",51.1243388500,17.0351198500
1878,26113,"Tunelowa",51.0648777300,17.0654839500
1879,26114,"Tunelowa",51.0651283100,17.0646960900
1883,25318,"Park Brochowski",51.0632764400,17.0748639300
1892,24111,"KROMERA",51.1317652000,17.0652074000
1902,24202,"Kochanowskiego",51.1151185900,17.0734512800
1903,24201,"Kochanowskiego",51.1150627500,17.0736171000
1945,29532,"OSIEDLE SOBIESKIEGO",51.1590262600,17.1324327000
1946,29530,"OSIEDLE SOBIESKIEGO",51.1592538700,17.1327617400
1963,17104,"Wiejska",51.0776360200,16.9639160200
1964,17113,"Adamieckiego",51.0732833300,16.9636527200
1418,10021,"GALERIA DOMINIKAŃSKA",51.1085289400,17.0387010800
1436,24401,"Hala Stulecia",51.1068946800,17.0737202600
1439,10023,"Hala Targowa",51.1127688000,17.0395733100
1445,11604,"Hutmen",51.0958967300,16.9857695900
1448,11212,"Jastrzębia",51.0836803300,17.0102912500
1454,20625,"Jedności Narodowej",51.1210200000,17.0432600000
1473,20810,"Katedra",51.1136256300,17.0521277000
1480,21019,"Klimasa",51.0800034400,17.0625517600
1486,20261,"Komuny Paryskiej",51.1017259800,17.0461160400
1491,20264,"Kościuszki",51.1002161400,17.0454389000
1499,24010,"Kwidzyńska",51.1316187600,17.0794718900
1502,12205,"Kwiska",51.1254882000,16.9832065900
1503,18201,"LEŚNICA",51.1446523600,16.8717053200
1504,20821,"most Grunwaldzki",51.1101381200,17.0554933300
1509,10649,"mosty Mieszczańskie",51.1175254100,17.0255051600
1515,11453,"Mielecka",51.0896265800,17.0004196200
1516,10404,"Młodych Techników",51.1127756400,17.0119553900
1520,20205,"Na Niskich Łąkach",51.0971004500,17.0560912500
1524,10013,"Uniwersytecka",51.1126320200,17.0358535200
1525,12202,"Niedźwiedzia",51.1212930400,16.9936183400
1529,21015,"Nyska",51.0829921100,17.0546832000
1533,10053,"Opera",51.1056358700,17.0318566200
1536,11214,"Orla",51.0801449600,17.0081865400
1544,10272,"pl. Legionów",51.1048549800,17.0217281600
1547,20201,"pl. Wróblewskiego",51.1048849400,17.0483389600
1557,25008,"Park Wschodni",51.0851935000,17.0720408200
1558,12403,"Park Zachodni",51.1293255700,16.9721211200
1564,10232,"Renoma",51.1037495200,17.0306378200
1566,11401,"Pereca",51.1010779000,17.0074396800
1570,20805,"Piastowska",51.1157841300,17.0601010800
1576,12408,"Metalowców",51.1324884700,16.9582692100
1595,10655,"Pomorska",51.1178923100,17.0310019500
1602,20852,"Prusa",51.1194763700,17.0574045500
1604,16403,"Przyjaźni",51.0685463300,17.0032825500
1612,11205,"Rondo",51.0911436500,17.0174944400
1614,10006,"Rynek",51.1098340800,17.0265935000
1622,20683,"Słowiańska",51.1234541000,17.0404781200
1970,25519,"Opatowicka nr 127",51.0919275700,17.1330333800
1981,12302,"Niedźwiedzia",51.1211590400,16.9934766400
1997,111404,"Stalowa",51.0996600000,17.0015920000
1998,11504,"Stalowa",51.0989626000,17.0013333500
2018,23167,"Gąsiorowskiego",51.1438549600,17.0397542800
2019,23168,"Gąsiorowskiego",51.1438590000,17.0394990000
2023,18534,"Suwalska",51.1517722600,16.9271541000
2024,18535,"Suwalska",51.1522513600,16.9268182400
2034,20622,"pl. Bema",51.1166631500,17.0417125500
2036,26303,"Wojszyce",51.0653971400,17.0322254200
2040,98360,"Las Mokrzański",51.1759061700,16.8335489400
2076,31908003,"Bierzyce - wieś",51.2384036200,17.1848725000
2077,31908004,"Bierzyce - wieś",51.2383927100,17.1845802400
2105,31453027,"Pruszowice - las",51.1831074100,17.1446996100
2132,21025,"Krynicka",51.0796893300,17.0505028900
2140,23311,"Lipska",51.1450717100,16.9873408100
2151,31922001,"Kiełczów - Rzeczna",51.1298594700,17.1747517700
2152,31922002,"Kiełczów - Rzeczna",51.1293948600,17.1746117700
2254,31920024,"Oleśniczka",51.1466121900,17.2806309000
2255,31920023,"Oleśniczka",51.1466091400,17.2804715400
2267,11331,"EPI",51.0978894400,17.0295311300
2276,29512,"Zakrzowska",51.1507428000,17.1158374700
2278,29515,"ROD Pod Dębem",51.1543370700,17.1046708800
2286,29114,"Dobroszycka",51.1513435300,17.1266710100
2289,21178,"ROD Bajki",51.0834244500,17.0340740400
2302,29528,"ROD Źródło Zdrowia",51.1506855900,17.1085794100
2306,26115,"ROD Mieczyk",51.0638894900,17.0724922200
2341,16717,"WAŁBRZYSKA",51.0632300400,16.9767633900
2361,12611,"Górnicza",51.1401983600,16.9594507900
2362,12612,"Górnicza",51.1399883700,16.9597107400
2369,21027,"Morwowa",51.0768883200,17.0506457900
2375,29116,"PSIE POLE (Stacja kolejowa)",51.1495443400,17.1189480200
2482,18705,"Główna",51.1634006900,16.8958143900
2506,29120,"PSIE POLE (Stacja kolejowa)",51.1496402100,17.1196140500
2528,21132,"GAJ",51.0771565900,17.0397758700
2537,25012,"Głubczycka",51.0802115500,17.0801075500
2550,18202,"LEŚNICA",51.1446593000,16.8724220600
2577,17520,"PORT LOTNICZY",51.1101980000,16.8799110000
1627,24413,"Spółdzielcza",51.1022059800,17.1018083900
1629,24208,"Stadion Olimpijski",51.1170499000,17.0900227400
1631,11403,"Stalowa",51.0994707600,17.0004263700
1632,11207,"Sztabowa",51.0887388500,17.0146551500
1636,10001,"Świdnicka",51.1074499400,17.0319522300
1641,16401,"Radio i Telewizja",51.0715518400,17.0057435900
1647,20618,"Trzebnicka",51.1286498700,17.0365318800
1649,25001,"Krakowska",51.0933109800,17.0599428100
1665,18009,"Wschowska",51.1449086300,16.8814493900
1668,10408,"ZACHODNIA (Stacja kolejowa)",51.1163976900,17.0004091800
1679,10412,"Dolmed",51.1143586600,17.0026600700
1681,21008,"Gajowa",51.0919339700,17.0399381800
1701,24728,"Volvo - brama II",51.1181140000,17.1116630000
1702,31453019,"Bąków",51.2117570200,17.1594742400
1705,18390,"RUBCZAKA (Stacja kolejowa)",51.1430309700,16.8668989700
1707,20901,"Ogród Botaniczny",51.1165012400,17.0520234600
1708,20831,"Ogród Botaniczny",51.1161180500,17.0510732300
1709,20802,"Ogród Botaniczny",51.1168194200,17.0502544400
1711,18727,"Łososiowicka",51.1756152900,16.8815003000
1716,16714,"Słoneczna",51.0597457800,16.9745635900
1718,31913008,"Januszkowice - Wierzbowa",51.2238700800,17.2382264500
1755,18730,"Małomicka",51.1668052400,16.8867304900
1791,17311,"MIŃSKA (Rondo Rotm. Pileckiego)",51.1053093900,16.9489282600
1795,24501,"Hala Stulecia",51.1070399600,17.0728323200
1809,12509,"Rękodzielnicza",51.1370464900,16.9578851800
1813,10521,"Szczepin",51.1176376500,17.0064837400
1815,23723,"Bagatela",51.1527626500,17.0693892200
1877,26328,"Ożynowa",51.0649495100,17.0099101300
1882,25317,"Park Brochowski",51.0627158000,17.0758671600
1893,24141,"KROMERA",51.1320221100,17.0656813700
1910,18375,"Hartmana",51.1599490000,16.8771594500
1934,61955006,"Komorowice",51.0155428400,17.0009356300
1971,25518,"Opatowicka nr 127",51.0921835800,17.1329421700
1983,21135,"BARDZKA (Cmentarz)",51.0723061700,17.0529592200
1984,120825,"Bujwida",51.1133642500,17.0667942100
2010,11368,"PARK POŁUDNIOWY",51.0726200500,17.0107435600
2013,29321,"Szewczenki",51.1417840800,17.1254692100
2594,24103,"Grudziądzka",51.1379492700,17.0750620300
2637,20329,"Komuny Paryskiej",51.1015751000,17.0464211600
2638,20330,"Komuny Paryskiej",51.1023005900,17.0466553900
2639,20328,"Kościuszki",51.1002515500,17.0454552200
2640,20370,"Pułaskiego",51.0986714900,17.0439781800
2714,18383,"LEŚNICA",51.1449008600,16.8716535000
2721,10505,"pl. Strzegomski (Muzeum Współczesne)",51.1132386800,17.0078862500
2722,17301,"Tyrmanda",51.1028225700,16.9452125300
2724,10506,"pl. Strzegomski (Muzeum Współczesne)",51.1127548400,17.0071732900
2725,17302,"Tyrmanda",51.1034824600,16.9462505100
2732,11366,"Pułtuska",51.0743182800,17.0150065600
2745,24718,"Wojnów",51.0971220300,17.1640454700
2783,23109,"most Milenijny",51.1365114800,16.9992727300
2796,29554,"PAWŁOWICE (Widawska)",51.1734159700,17.1164216700
2820,10269,"Arkady (Capitol)",51.1012407300,17.0297595300
2831,17736,"Żernicka",51.1255770000,16.9123680000
2832,17735,"Żernicka",51.1257694600,16.9117077800
2848,17126,"Jordanowska",51.0796664900,16.9574772400
2855,11707,"FAT",51.0951428800,16.9794631200
2863,11726,"FAT",51.0937556100,16.9803761500
2880,24509,"BARTOSZOWICE",51.1025481000,17.1160670600
2899,29538,"Pawłowicka",51.1681683300,17.1125124900
2934,31920007,"Kiełczów - Mleczna",51.1402019600,17.1780840400
2947,16723,"Kościelna",51.0628624200,16.9834090000
2980,23165,"KAMIEŃSKIEGO (pętla)",51.1506991100,17.0430711500
2981,23166,"KAMIEŃSKIEGO (pętla)",51.1507006200,17.0432173400
3036,31910002,"Pasikurowice - n/ż",51.2158836700,17.1174768500
3037,31910001,"Pasikurowice - n/ż",51.2159089100,17.1173187300
3056,18391,"Rubczaka",51.1441942900,16.8659648400
3057,18392,"Rubczaka",51.1440717400,16.8661112600
3116,17511,"Strachowice General Aviation",51.1050111500,16.8990643000
3124,23521,"POŚWIĘTNE",51.1513201700,17.0293392900
3136,18714,"PRACZE ODRZAŃSKIE",51.1747050400,16.9066019500
3144,23710,"KOSZAROWA (Szpital)",51.1416629200,17.0647761500
3145,23730,"SOŁTYSOWICE",51.1551703700,17.0644222100
3195,29137,"MULICKA",51.1450600000,17.1168390000
3208,21370007,"Psary - Parkowa",51.1829179400,17.0396429700
2037,26306,"Parafialna",51.0631572800,17.0322484500
2039,26333,"Parafialna",51.0622635700,17.0312163100
2041,20623,"Na Szańcach",51.1189024500,17.0420412600
2116,120623,"Na Szańcach",51.1188242300,17.0420423700
2124,18336,"Krajobrazowa",51.1291202900,16.8404182500
2173,23154,"Obornicka (Obwodnica)",51.1570525300,17.0106856000
2175,23543,"Poświęcka",51.1565148000,17.0340930700
2176,23542,"Poświęcka",51.1560295900,17.0337226900
2179,92052015,"Brzezina - Osiedle",51.1921631300,16.8334558300
2235,23709,"Przybyszewskiego",51.1401167300,17.0629669600
2245,31917008,"Wilczyce - Dębowa",51.1303269200,17.1628235800
2253,31920016,"Brzezia Łąka - cmentarz",51.1225665700,17.2389121900
2262,12158,"ROD Oświata",51.1019506900,16.9728020700
2269,11334,"Komandorska",51.0923578400,17.0233312900
2270,125004,"KRAKOWSKA (Centrum handlowe)",51.0900344800,17.0648326800
2273,29501,"Zakrzowska",51.1520301100,17.1165644800
2277,29516,"ROD Pod Dębem",51.1537050200,17.1044453700
2285,11327,"Wielka",51.0929713500,17.0194295900
2291,21179,"ROD Bajki",51.0830188600,17.0360095600
2297,25004,"KRAKOWSKA (Centrum handlowe)",51.0901590300,17.0646269800
2300,26111,"ROD Zgoda",51.0660581400,17.0599531500
2303,29529,"ROD Źródło Zdrowia",51.1511971500,17.1077045100
2316,31909003,"Tokary - osiedle",51.2308562900,17.1350530200
2348,10008,"ŚWIDNICKA (Dom Europy)",51.1068121200,17.0334133800
2358,12603,"PILCZYCKA (Anima)",51.1351552600,16.9692437400
2371,21142,"Borowska",51.0880667700,17.0364739000
2373,21103,"Borowska",51.0893095800,17.0338960000
2478,12736,"KOZANÓW",51.1374778700,16.9687557600
2484,10527,"LITOMSKA (ZUS)",51.1199086500,17.0101373900
2489,20932,"Katedra",51.1133059000,17.0498472300
2490,12129,"Kołobrzeska",51.1219857100,16.9475415100
2492,17725,"Szkoła Żerniki",51.1214013500,16.9250679900
2496,2,"Zajezdnia OŁBIN",51.1238394100,17.0410439100
2505,29119,"PSIE POLE (Stacja kolejowa)",51.1505801000,17.1205503400
2515,17513,"Rdestowa",51.1112747300,16.8880577400
2527,21131,"GAJ",51.0769005300,17.0419316500
2536,25011,"Głubczycka",51.0801595500,17.0800100100
3209,23128,"Wołowska",51.1473036700,17.0298673900
3214,23020,"Wołowska",51.1481479500,17.0298805600
3217,12732,"KOZANÓW (Dokerska)",51.1413776200,16.9638668800
3218,12733,"KOZANÓW (Dokerska)",51.1415645500,16.9635930000
3227,18006,"Kamiennogórska (Ośrodek dla niewidomych)",51.1424933800,16.9000487100
3231,18149,"Kamiennogórska (Ośrodek dla niewidomych)",51.1421977000,16.9001399600
3256,17129,"Tyniecka",51.0721155900,16.9585409500
3339,50000042,"IWINY - pętla",51.0423100000,17.0722760000
3389,17721,"Jarnołtowska (Samotworska)",51.1201540900,16.8498842600
3392,17738,"Samotworska",51.1182407900,16.8475013400
3393,17737,"Samotworska",51.1187413500,16.8476561900
3416,12538,"Bulwar Dedala",51.1273515200,16.9639283500
3417,11353,"Sudecka",51.0844339100,17.0180651400
3419,29115,"Psie Pole (Rondo Lotników Polskich)",51.1481929100,17.1174114300
3442,12903,"KUŹNIKI",51.1233022100,16.9501394500
3455,24323,"Godebskiego (AWF Wrocław)",51.1137708800,17.0984612900
3457,11601,"Bzowa (Centrum Zajezdnia)",51.0976122400,16.9919245600
3458,24211,"Godebskiego (AWF Wrocław)",51.1138254800,17.0970024400
3461,24145,"Kromera (Czajkowskiego)",51.1363142600,17.0704444500
3467,90336900,"Wilkszyn (pętla)",51.1919135600,16.8625640100
3514,21121,"DWORZEC AUTOBUSOWY",51.0972044400,17.0363433500
3517,120269,"DWORZEC GŁÓWNY",51.0996210000,17.0351930000
3535,20719,"Słonimskiego",51.1306226200,17.0443202400
3540,23564,"Cynamonowa",51.1760266900,16.9983034000
3544,23561,"Waniliowa",51.1782875800,16.9995882600
3555,21162,"Armii Krajowej (Bogedaina)",51.0853469400,17.0652888100
3556,21161,"Armii Krajowej (Bogedaina)",51.0855263200,17.0662281300
3557,111405,"pl. Srebrny",51.0984880000,16.9961460000
3558,111406,"pl. Srebrny",51.0984590000,16.9963910000
3559,11406,"pl. Srebrny",51.0984416100,16.9961696200
3567,17135,"Stanki",51.0763258500,16.9720669200
3588,31909007,"Łozina - Nowego Osiedla I",51.2335288100,17.1718061300
3604,30368004,"Długołęka - Kasztanowa",51.1772434400,17.1874231200
3609,31917006,"Wilczyce - Dworska",51.1292884900,17.1549418500
3611,31917016,"Kiełczów - cmentarz",51.1366407800,17.1768963000
2539,25319,"Ziemniaczana",51.0537185600,17.0926170300
2542,24016,"KOWALE",51.1284171500,17.1021457800
2665,726952,"Wysoka",51.0460820200,17.0129740100
2696,29319,"Inflancka",51.1423978500,17.1297809700
2709,110424,"Poznańska",51.1216990000,17.0125240000
2727,10406,"pl. Strzegomski (Muzeum Współczesne)",51.1129278900,17.0077196800
2734,11377,"Pułtuska",51.0747735700,17.0161786500
2738,23316,"Góra Kapliczna",51.1515126800,16.9929223200
2742,10052,"Park Staromiejski",51.1049990100,17.0371063000
2746,24717,"Wojnów",51.0973272500,17.1634351900
2748,24136,"Olsztyńska",51.1393859700,17.0951032000
2771,29121,"Psie Pole (Gorlicka)",51.1458387600,17.1137168100
2772,20925,"PL. GRUNWALDZKI",51.1127135300,17.0650486000
2777,17517,"Graniczna (Strachowicka)",51.1110179300,16.8982274700
2784,23110,"most Milenijny",51.1366686500,17.0004071000
2791,23170,"Kamieńskiego (Szpital)",51.1482940000,17.0427440000
2793,12151,"MUCHOBÓR MAŁY (Stacja kolejowa)",51.1125786600,16.9706042000
2794,21157,"Nyska",51.0828854900,17.0549052400
2817,10233,"Arkady (Capitol)",51.1016523800,17.0292595400
2819,10270,"Arkady (Capitol)",51.1013912100,17.0286990600
2822,10026,"pl. Nowy Targ",51.1104065200,17.0390255800
2849,18330,"Ratyń - skrzyżowanie",51.1302853900,16.8476622600
2858,21171,"Orzechowa",51.0829566500,17.0418044700
2869,17726,"Szkoła Żerniki",51.1211917700,16.9268594700
2871,29551,"Pawłowicka",51.1696058800,17.1132082300
2881,24140,"KROMERA",51.1320326100,17.0655881200
2883,120625,"Jedności Narodowej",51.1210200000,17.0432600000
2884,12121,"Nowy Dwór",51.1124954700,16.9596744000
2920,21158,"Złotostocka",51.0773267000,17.0618256900
2935,29108,"BIERUTOWSKA (Ośrodek zdrowia)",51.1516490000,17.1307490000
2953,110222,"Wzgórze Partyzantów",51.1042805600,17.0374997100
2955,25307,"Chińska",51.0608851300,17.0817574600
2958,10221,"Wzgórze Partyzantów",51.1042801600,17.0374018900
2969,11612,"GRABISZYŃSKA (Cmentarz II)",51.0876374600,16.9755232100
2999,18117,"Fieldorfa (Szpital)",51.1444259400,16.9070302200
3006,18016,"Kosmonautów (Szpital)",51.1417379200,16.9060529900
3613,31920001,"Kiełczów - Ładna",51.1436172500,17.1600064300
3614,31913009,"Januszkowice - Wrocławska",51.2212137800,17.2388790400
3616,30017701,"Długołęka - SELGROS pętla",51.1831096700,17.1985902900
3617,31918005,"Kamień - Bursztynowa",51.1688035900,17.2133833100
3621,31919002,"Piecowice",51.1445072900,17.2174770300
3632,31918006,"Kamień - Bursztynowa",51.1680447100,17.2141746500
3634,31913010,"Januszkowice - Wrocławska",51.2211867900,17.2384442100
3644,31371008,"Siedlec - Wrocławska/sklep",51.2309920700,17.1158434300
3648,31371011,"Pasikurowice - skrzy. Malinowa",51.2095317100,17.1039360400
3649,31371014,"Pasikurowice - skrzy. Malinowa",51.2097949200,17.1039922700
3656,31453025,"Domaszczyn - skrzy.",51.1888967000,17.1512384800
3664,31912002,"Łosice",51.2167411700,17.2051800100
3665,31912001,"Łosice",51.2166636800,17.2049164500
3678,31918003,"Długołęka - Nowy Urząd",51.1741953900,17.2021828700
3679,31918004,"Długołęka - Nowy Urząd",51.1738945300,17.2021785700
3698,31919006,"Raków - osiedle",51.1664480100,17.2686538700
3703,31453007,"Kępa - skrzy.",51.2410006900,17.1955393500
3709,31453015,"Łozina - skrzy.",51.2324397600,17.1752915200
3711,31453013,"Łozina - Milicka/poczta",51.2331773400,17.1775206200
3714,31920002,"Kiełczów - Sosnowa",51.1436487600,17.1586585100
3723,31453008,"Kępa - skrzy.",51.2412206500,17.1956563800
3746,31913006,"Januszkowice - skrzy. Kępa",51.2327202700,17.2365359100
3747,31913005,"Januszkowice - skrzy. Kępa",51.2327788400,17.2367243100
3757,17305,"Stanisławowska (W.K. Formaty)",51.0968382900,16.9468478100
3758,17306,"Stanisławowska (W.K. Formaty)",51.0969461300,16.9468979200
3763,11326,"Zaolziańska",51.0977656800,17.0256877100
3776,23534,"Kominiarska (plac sportowy)",51.1753141900,17.0116024200
3781,87119,"GIEŁDOWA (Centrum Hurtu)",51.0682000000,16.9693370000
3782,17119,"GIEŁDOWA (Centrum Hurtu)",51.0681134100,16.9695234600
3795,26109,"Kajdasza",51.0528330000,17.0578633300
3809,26309,"Grota-Roweckiego",51.0506420100,17.0304024400
3812,26323,"rondo Św. Ojca Pio",51.0591899600,17.0068686500
3813,26324,"rondo Św. Ojca Pio",51.0588290800,17.0070325200
3821,23011,"KARŁOWICE",51.1342531700,17.0371479900
3824,17111,"Awicenny",51.0871151300,16.9528231600
3009,18115,"Kosmonautów (Szpital)",51.1424799800,16.9060075700
3016,23517,"Rzemieślnicza",51.1714458000,17.0047036000
3020,25122,"Sosnowiecka",51.0706587600,17.0915459200
3026,31920011,"Śliwice",51.1289559200,17.2140701300
3054,17316,"Trawowa",51.0972703300,16.9493911900
3064,31908001,"Zaprężyn",51.2519651000,17.1929477200
3069,23312,"Witkowska",51.1484043200,16.9889220200
3074,26330,"Husarska",51.0602018500,17.0012068000
3075,90000002,"Brzezina - Kościół",51.2023321000,16.8327646000
3100,10017,"Zamkowa",51.1080308300,17.0293499900
3107,21160,"PETRUSEWICZA",51.0916715900,17.0326754000
3125,23022,"POŚWIĘTNE",51.1502082200,17.0287050100
3130,18525,"RĘDZIŃSKA",51.1573876700,16.9488763700
3134,25309,"BROCHÓW",51.0589703800,17.0864756900
3139,11313,"KRZYKI",51.0748550000,17.0062318900
3142,10121,"GALERIA DOMINIKAŃSKA",51.1089157400,17.0399095500
3201,11618,"OPORÓW",51.0843280500,16.9722886500
3221,18148,"Małopolska (Ośrodek dla niewidomych)",51.1374574800,16.8988858100
3225,24130,"Kowalska 56",51.1364753700,17.0974021900
3226,25517,"Opatowicka nr 59",51.0950859000,17.1159210000
3228,18005,"Kamiennogórska (Ośrodek dla niewidomych)",51.1426287900,16.8997251000
3240,24119,"KOWALE",51.1289633300,17.1018384000
3265,23103,"Serbska (C.K. Agora)",51.1338962000,17.0196455000
3369,50000040,"Iwiny - Kolejowa",51.0404319700,17.0752143800
3379,23725,"KOSZAROWA (Uniwersytet)",51.1404951600,17.0684798900
3384,10240,"Narodowe Forum Muzyki",51.1079445700,17.0266466900
3412,12539,"Bulwar Dedala",51.1267874600,16.9629985300
3421,29129,"Psie Pole (Rondo Lotników Polskich)",51.1478056800,17.1149333000
3452,11702,"Bzowa (Centrum Zajezdnia)",51.0976554000,16.9930907400
3454,11524,"Krucza (Mielecka)",51.0932560600,17.0024924700
3456,11602,"Bzowa (Centrum Zajezdnia)",51.0976059400,16.9926512100
3459,24212,"Godebskiego (AWF Wrocław)",51.1139412900,17.0979923800
3466,31368,"Sanocka",51.0935048800,17.0303903200
3470,90336011,"Wilkszyn - Miłoszyn",51.1827212000,16.8725008000
3480,90336006,"Pisarzowice - Odrzańska",51.2052389000,16.8525611000
3483,90336008,"Pisarzowice - Graniczna",51.1968230000,16.8549944000
3839,23539,"Lawendowa",51.1697372600,17.0004355900
3859,121031,"Hubska (Dawida)",51.0930490000,17.0428970000
3860,121032,"Hubska (Dawida)",51.0940818700,17.0428791000
3866,91606010,"Radakowice - Świetlica",51.1291260000,16.7432390000
3867,91606009,"Radakowice - Świetlica",51.1293130000,16.7425990000
3877,23552,"Milicka",51.1523470000,17.0434690000
3878,23551,"Milicka",51.1527670000,17.0436330000
3902,21013,"Bardzka",51.0829166600,17.0504896100
3903,11209,"Hallera",51.0867606000,17.0123529300
3919,24703,"Kolumba",51.1141998300,17.1161854900
3925,18505,"Maślice Małe (Brodnicka)",51.1529305700,16.9401113700
3926,18506,"Maślice Małe (Brodnicka)",51.1533120800,16.9395463900
3936,11552,"RACŁAWICKA",51.0777507000,16.9834299700
3945,90094008,"Źródła",51.1599130000,16.7225360000
3962,92060011,"Zabór Wielki",51.2122800000,16.7294010000
3963,92060012,"Zabór Wielki",51.2122030000,16.7294130000
3972,92056010,"Klęka",51.2086166900,16.7499646000
3973,92056009,"Klęka",51.2088453800,16.7498987500
3974,92056012,"Miękinia - Urząd Gminy",51.1938677600,16.7380649600
3975,92056011,"Miękinia - Urząd Gminy",51.1940821700,16.7380306100
3979,92056016,"Miękinia Cegielnia",51.1882440000,16.7246560000
3994,92052010,"Brzezinka Średzka - PKP",51.2195160000,16.8363330000
3995,92052009,"Brzezinka Średzka - PKP",51.2192344000,16.8374492800
4000,92058008,"Krępice - Wrocławska",51.1630110000,16.8107950000
4001,92058007,"Krępice - Wrocławska",51.1630510000,16.8108960000
4003,92055001,"Wojnowice - Główna",51.2015419500,16.7957306700
4015,92052017,"Księginice P&R",51.2423574000,16.7622880000
4020,24137,"Kowalska 56",51.1360237800,17.0976164700
4022,24144,"KROMERA",51.1319930600,17.0658681600
4027,11525,"Kolbuszowska (Stadion)",51.0940238500,16.9972875400
4028,11526,"Kolbuszowska (Stadion)",51.0939672200,16.9968875900
4047,17727,"Jerzmanowo (Cmentarz I)",51.1246140000,16.8863610000
4050,25520,"Opatowicka nr 59",51.0951649000,17.1164303500
4100,21163,"Wapienna",51.0867976000,17.0431786500
4105,17519,"Skarżyńskiego",51.1092396100,16.9053400700
4123,26107,"Jagodzińska",51.0570245400,17.0569164300
3487,11547,"Rymarska",51.0793232000,16.9912579800
3520,20269,"DWORZEC GŁÓWNY",51.0996270300,17.0351616700
3523,10268,"DWORZEC GŁÓWNY",51.1000018600,17.0353093500
3532,121004,"Joannitów",51.0940895400,17.0338478400
3538,23566,"Tymiankowa",51.1757888400,16.9936691100
3547,12906,"KUŹNIKI",51.1234971100,16.9511283900
3549,24729,"Gospodarska",51.1183384800,17.1239305500
3560,11405,"pl. Srebrny",51.0984846500,16.9961321000
3570,17137,"Bukowskiego",51.0767071900,16.9773610700
3573,20352,"DWORZEC AUTOBUSOWY",51.0970423100,17.0372646600
3586,31909008,"Łozina - Nowego Osiedla I",51.2334363000,17.1719646600
3596,30098010,"Mirków - Jagiellońska",51.1681290800,17.1645747900
3598,30098012,"Mirków - Sportowa",51.1636561400,17.1571042300
3603,30368003,"Długołęka - Kasztanowa",51.1776930900,17.1880799200
3605,30368001,"Długołęka - Wiejska",51.1747704100,17.1772107000
3612,31920003,"Kiełczów - Biedronka",51.1426775300,17.1665650500
3618,31918008,"Kamień - skrzy.",51.1668643000,17.2193349700
3628,30368007,"Byków - Ogrodowa",51.1920389800,17.2400111300
3638,31921007,"Raków IV",51.1559148700,17.2749699300
3642,319119008,"Raków - skrzy.",51.1677357100,17.2751272900
3645,31371007,"Siedlec - Wrocławska/szkoła",51.2300609700,17.1146163300
3647,31371012,"Pasikurowice - Energetyczna",51.2141238000,17.1098117700
3650,31371013,"Pasikurowice - cmentarz",51.2043250600,17.1009822500
3660,32617801,"Michałowice Skrzyżowanie",51.2360421900,17.2198812300
3663,31341005,"Łosice - plac zabaw",51.2168935700,17.2037054100
3669,31423021,"Bukowina - skrzy.",51.2049655100,17.1538612200
3672,31907002,"Krakowiany - skrzy.",51.2638015900,17.1902215400
3688,31921001,"Raków I",51.1700792400,17.2776887800
3690,31919007,"Raków - skrzy.",51.1678296500,17.2753299100
3699,31921005,"Raków III",51.1583466300,17.2729105400
3710,31453014,"Łozina - Milicka/poczta",51.2333505600,17.1776437000
3712,31453012,"Łozina - Milicka/szkoła",51.2348521100,17.1812383400
3720,32912001,"Pruszowice",51.1886252800,17.1341788500
3735,31371010,"Pasikurowice - Wrocławska (na wys. nr 14)",51.2150184100,17.1106155900
3738,31909002,"Siedlec - skrzy. Osiedlowa",51.2339325800,17.1215219600
3759,21107,"Działkowa",51.0777534300,17.0338284800
4124,26117,"Vivaldiego",51.0492163600,17.0593293700
4125,26118,"Vivaldiego",51.0500936700,17.0591004500
4134,18746,"Stoszowska",51.1514183800,16.9109564400
4135,18747,"Stoszowska",51.1515872500,16.9109040600
4137,26108,"Jagodzińska",51.0591970100,17.0565062900
4167,92052011,"Brzezinka Średzka - ul. Główna",51.2158882000,16.8369020000
4169,91607006,"Gałów przy posesji nr 2",51.1118770000,16.8167080000
4174,91048981,"Wróblowice Innowacyjna",51.1531270000,16.8146390000
4183,92052004,"Lenartowice przy posesji nr 11a",51.2439710000,16.7997010000
4184,92052003,"Lenartowice przy posesji nr 11a",51.2440450000,16.7997470000
4186,92052005,"Prężyce przy posesji nr 22",51.2384061300,16.8187005700
4201,18388,"LEŚNICA",51.1446737300,16.8715548200
4202,32101,"Wrocławski Park Przemysłowy",51.1125470000,16.9937750000
4249,110015,"Uniwersytet Wrocławski",51.1137190000,17.0322600000
4250,10015,"Uniwersytet Wrocławski",51.1137070000,17.0322236000
4253,18386,"LEŚNICA",51.1447892900,16.8718135300
4254,31919001,"Piecowice",51.1444410000,17.2174820000
4274,61954010,"Żórawina - skrzy. Niepodległości",50.9812909100,17.0356423700
4284,61954004,"Suchy Dwór - skrzy. (Wrocławska/Główna)",51.0194493700,17.0358829200
4293,61954007,"Żórawina - Wrocławska",50.9865232400,17.0385876900
4300,61953004,"Szukalice",50.9989965600,17.0064554300
4380,51935001,"Iwiny - Kościuszki 21",51.0410003600,17.0747222900
4389,70008008,"Bielany Wrocławskie - Kwiatowa",51.0324710000,16.9678160000
4402,71951004,"Bielany Wrocławskie - PKP",51.0375729600,16.9773535600
4405,723955,"Wysoka - Chabrowa",51.0476455600,17.0055332100
4427,80370003,"Smolec - Wrocławska",51.0772870000,16.8920030000
4428,80370004,"Smolec - Wrocławska",51.0773530000,16.8913730000
4429,80370002,"Smolec - Chłopska/Główna",51.0739070000,16.8846430000
4455,80347013,"Pietrzykowice - Wrocławska/Stawowa",51.0555235400,16.8824410300
4461,81950001,"Pietrzykowice - zakład",51.0480485300,16.8816921700
4462,81950002,"Pietrzykowice - zakład",51.0479510000,16.8816910000
4464,80370006,"Mokronos Górny - Wrocławska/Gwarna",51.0755740000,16.9167360000
4465,80370001,"Smolec - Chłopska/Główna",51.0740430000,16.8847140000
3766,24129,"Olsztyńska",51.1404469700,17.0940870700
3789,18120,"Fieldorfa",51.1464501900,16.9077768700
3790,18387,"LEŚNICA",51.1447151500,16.8712568500
3792,23562,"Waniliowa",51.1783784000,16.9995805900
3793,20715,"DWORZEC NADODRZE",51.1247389700,17.0338341500
3794,26110,"Kajdasza",51.0542248500,17.0579877300
3800,17713,"Jasińskiej",51.1209893100,16.8766318900
3811,23502,"Ćwiczebna",51.1584095200,17.0089604300
3816,18720,"Stabłowicka",51.1703400000,16.9016280000
3818,23181,"KARŁOWICE",51.1343026500,17.0372263100
3834,26340,"rondo Św. Ojca Pio",51.0600960000,17.0075130000
3835,26338,"rondo Św. Ojca Pio",51.0593244200,17.0079284800
3836,26339,"ZWYCIĘSKA",51.0592928700,17.0112882300
3852,31371002,"Godzieszowa - transformator",51.2405675100,17.1300617600
3863,91606006,"Lutynia I",51.1357000000,16.7719660000
3868,91606012,"Łowęcice - Staw",51.1215010000,16.7404670000
3871,91606004,"Lutynia - Straż",51.1350075500,16.7828311600
3876,21110,"Borowska (Szpital)",51.0752569600,17.0330585000
3884,29328,"LITEWSKA",51.1422889200,17.1275839200
3893,21174,"Bardzka",51.0832163600,17.0480013100
3899,23734,"pl. Daniłowskiego",51.1384537200,17.0599123100
3929,11544,"Modlińska",51.0814048600,17.0002057700
3932,18529,"Królewiecka (Park)",51.1489517100,16.9304072100
3934,11550,"RACŁAWICKA",51.0774915900,16.9851034300
3939,90094002,"Krępice",51.1540540000,16.8130430000
3957,91048791,"Żurawiniec",51.1762300000,16.8118760000
3959,92060007,"Lubiatów",51.2254960000,16.6959370000
3961,92060009,"Zabór Mały",51.2191962700,16.7035156500
3966,92056003,"Gąsiorów",51.2425518700,16.7406247000
3971,92056007,"Białków",51.2149210000,16.7651920000
3977,92056013,"Miękinia - stacja PKP",51.1883681100,16.7357843900
3984,92056020,"Kadłub wieś",51.1744159600,16.6966309800
4002,92055002,"Wojnowice - Główna",51.2014040000,16.7958430000
4005,92055005,"Czerna",51.2252380000,16.7999620000
4006,92055004,"Wilkostów",51.2160120000,16.8053650000
4014,92052001,"Księginice - skrzyż. Warzyna",51.2434440000,16.7657370000
4016,92056021,"Miękinia - pętla",51.1938440000,16.7395680000
4476,81071833,"Smolec - Chłopska/Śliwkowa",51.0840620000,16.9048240000
4477,81071834,"Smolec - Chłopska/Śliwkowa",51.0844630000,16.9060870000
4517,120831,"Ogród Botaniczny",51.1161181000,17.0510732200
4519,51954001,"Biestrzyków - Wrocławska",51.0352532900,17.0305292100
4520,51954002,"Biestrzyków - Wrocławska",51.0356073100,17.0303888900
4526,31480005,"Borowa - skrzy.",51.1957667100,17.2800933000
4536,32696101,"Wilczyce - Wilczycka (Stary Młyn)",51.1226440600,17.1552602100
4543,31341017,"Łozina - Cmentarz",51.2285671100,17.1806044700
4549,32911806,"Domaszczyn - Wrocławska Skrzyżowanie",51.1879752600,17.1531278000
4553,32696202,"Wilczyce - Wilczycka (Stary Młyn)",51.1228694700,17.1549152900
4556,31916002,"Mirków - Kiełczowska (na wys. nr 14)",51.1605860800,17.1668246400
4557,31916001,"Mirków - Kiełczowska (na wys. nr 14)",51.1607406000,17.1669148400
4566,31917017,"Kiełczów - pętla (Plac Jana Gdaka)",51.1395649800,17.1790150200
4602,31913013,"Dobroszów - skrzy. Węgierska",51.2125719500,17.2261850500
4603,31913014,"Dobroszów - skrzy. Węgierska",51.2126222000,17.2266947900
4604,23140,"Bałtycka (szkoła)",51.1385990800,17.0288086700
4619,92052028,"Brzezina - Zacisze",51.1908048000,16.8337107000
4620,92052027,"Brzezina - Zacisze",51.1906647400,16.8337350400
4633,17318,"Gagarina",51.0956645100,16.9350072800
4634,17319,"Gagarina",51.0949946800,16.9343434100
4639,30000003,"Węgrów (na wys. nr 27)",51.2643145500,17.2233714600
4655,91048984,"Lutynia Rondo",51.1515300000,16.8061300000
4656,91048985,"Lutynia Rondo",51.1516500000,16.8060000000
4663,25497,"Na Grobli (Hydropolis)",51.1046191400,17.0558043200
4664,25498,"Na Grobli (Hydropolis)",51.1047990300,17.0551972100
4666,25499,"Okólna",51.1020726800,17.0676486200
4698,60000006,"Rzeplin - pętla",51.0033299700,17.0198891000
4707,82022099,"Smolec - Lipowa/pętla",51.0750054800,16.8844212800
4709,81071865,"Jaszkotle - Palmowa",51.0563438200,16.9035179300
4710,81071866,"Jaszkotle - Palmowa",51.0564644700,16.9034033900
4719,17108,"Chachaja",51.0822310000,16.9559450000
4728,21370011,"Szymanów",51.1937180300,17.0193621700
4729,21370010,"Szymanów (Letnia)",51.1951139900,17.0149492000
4021,24142,"KROMERA",51.1320085300,17.0657783000
4024,92058002,"Mrozów - Świetlica",51.1856440600,16.7910392500
4025,92058004,"Mrozów - Wyzwolenia",51.1882020000,16.7863370000
4033,17740,"Kaczorowskiego",51.1268770500,16.8814466200
4038,10384,"Tęczowa",51.1052580200,17.0139121700
4041,10247,"Kolejowa",51.1032700000,17.0170090000
4043,17711,"Jerzmanowo (Cmentarz I)",51.1236229900,16.8837995500
4048,17741,"Jerzmanowo (Cmentarz)",51.1252619400,16.8879303300
4054,26106,"Malinowskiego",51.0629066500,17.0555459400
4065,18403,"Dworska",51.1435953700,16.9546217300
4102,18360,"Grzybowa",51.1589095000,16.8532170200
4108,20320,"Komuny Paryskiej (szkoła)",51.1025793100,17.0446470800
4122,26102,"Buforowa-Rondo",51.0706445700,17.0538541300
4127,18017,"Aleja Architektów",51.1389260800,16.9288596300
4129,18132,"Aleja Architektów",51.1389810900,16.9285191400
4132,18744,"Olbrachtowska",51.1526980000,16.9049950000
4156,90000014,"Lutynia Centrum",51.1351145200,16.7835098600
4160,92056006,"Księginice ul. Sportowa",51.2391330000,16.7616980000
4162,92052014,"Brzezina - ul. Chrobrego",51.2014550000,16.8349673000
4164,91607003,"Ferma - stadnina koni",51.1180276000,16.8253587000
4166,91607005,"Gałów Przedszkole",51.1118090000,16.8166820000
4168,92052012,"Brzezinka Średzka - ul. Główna",51.2158058000,16.8370802000
4173,91048983,"Lutynia Osiedle ul. Wschodnia",51.1374230000,16.7957840000
4179,91048802,"Głoska - ul. Średzka",51.2398850000,16.7214780000
4188,92052007,"Gosławice - przejazd PKP",51.2237740000,16.8262490000
4194,91048863,"Brzezinka Średzka - ul. Parkowa",51.2161980000,16.8251340000
4212,21370008,"Szymanów (Widawska)",51.1909420000,17.0278370000
4259,31918013,"Kamień - skrzy. Diamentowa",51.1665270000,17.2199760000
4264,51934006,"Trestno - świetlica",51.0810580000,17.1458950000
4267,51934003,"Trestno - kościół",51.0801840000,17.1449530000
4276,61972006,"Żórawina - osiedle",50.9876008300,17.0126883000
4278,61953008,"Szukalice",50.9981563300,17.0049648700
4281,71955002,"Wysoka - Lipowa",51.0453359400,17.0144380200
4286,61954006,"Suchy Dwór - skrzy. Mędłów",51.0077837600,17.0374966200
4734,16524,"Wojszycka",51.0677188700,17.0143228000
4738,11316,"KRZYKI",51.0745604600,17.0067135000
4739,11310,"KRZYKI",51.0748836600,17.0065686100
4744,82022001,"Krzeptów - skrzy.",51.0887520000,16.8758080000
4745,82022002,"Krzeptów - skrzy.",51.0887400000,16.8756910000
4754,61953002,"Rzeplin - Al. Lipowa ",51.0032200000,17.0191173300
4760,120818,"Kliniki - Politechnika Wrocławska",51.1093224100,17.0662813900
4767,32142,"NOWY DWÓR (pętla)",51.1195440000,16.9532180000
4776,20281,"Urząd Wojewódzki (Muzeum Narodowe)",51.1098023400,17.0479983100
4791,32133,"Zemska",51.1165280000,16.9493880000
4801,18401,"TARCZYŃSKI ARENA (Królewiecka)",51.1435674600,16.9499601500
4827,16509,"Partynice (tor wyścigów konnych)",51.0613050000,16.9959718300
4878,70344001,"Biskupice Podg. LG Electronics",51.0242349900,16.8905038000
4880,70161001,"Biskupice Podg. LG Energy Solution Wr. I",51.0172902300,16.8806512100
4889,30704,"pl. Strzelecki",51.1227080000,17.0263040000
4890,23148,"Obornicka (Wołowska)",51.1443850000,17.0237350000
4891,30703,"pl. Strzelecki",51.1221010000,17.0265890000
4893,120823,"PL. GRUNWALDZKI",51.1117002800,17.0604315100
4894,120824,"PL. GRUNWALDZKI",51.1114060000,17.0598520000
4895,120815,"PL. GRUNWALDZKI",51.1114382700,17.0603531000
4896,20820,"PL. GRUNWALDZKI",51.1116227200,17.0599651300
4915,24314,"8 Maja",51.1135437000,17.0910980000
4947,31371004,"Godzieszowa (na wys. nr 3)",51.2374339300,17.1259322500
5107,21152,"TARNOGAJ",51.0785975300,17.0639382600
5110,23519,"PRACZE WIDAWSKIE",51.1776764800,17.0155968700
5112,110607,"Mosty Pomorskie",51.1149650000,17.0306860000
5113,110608,"Mosty Pomorskie",51.1147540000,17.0306270000
5125,21148,"Tarnogajska",51.0837435500,17.0588417700
5128,21018,"Tarnogajska",51.0837238900,17.0596581100
4287,61954008,"Żórawina - Wrocławska",50.9861291700,17.0383371200
4299,60000001,"Żórawina - Niepodległości (Mostek)",50.9797405800,17.0406896500
4301,61953003,"Szukalice",50.9993337300,17.0065628200
4375,50395002,"Iwiny - rondo",51.0444767400,17.0608945600
4381,110452,"PL. JANA PAWŁA II",51.1121550000,17.0222480000
4388,82024003,"Zabrodzie - pętla",51.0567887900,16.9454119800
4391,70008003,"Bielany Wrocławskie - Kościół",51.0406760000,16.9694210000
4394,71951002,"Bielany Wrocławskie - skrzyżowanie",51.0390917500,16.9709403100
4396,71951005,"Ślęza - skrzyżowanie",51.0374831000,16.9859783800
4400,723954,"Wysoka - Radosna",51.0487098600,17.0000343300
4407,71951010,"Wysoka - osiedle",51.0518760600,17.0027637400
4409,70008001,"Bielany Wrocławskie - Makro",51.0445137000,16.9704284600
4413,82024004,"Zabrodzie - pętla",51.0569300000,16.9465210000
4425,31922009,"Kiełczówek - skrzy. Imbirowa",51.1194904100,17.1792128500
4431,31917018,"Wilczyce - Wrocławska (na wys. nr 1F)",51.1317678900,17.1458493900
4434,80370007,"Mokronos Dolny - Stawowa/Szczęśliwa",51.0713214600,16.9331258300
4449,12116,"Fabryczna",51.1123343300,16.9836041800
4451,12118,"Otyńska",51.1124480000,16.9779590000
4456,80347014,"Pietrzykowice - Wrocławska/Stawowa",51.0555433500,16.8818912000
4457,80347020,"Mokronos Dolny - Parkowa/Stawowa",51.0706200000,16.9381840000
4460,80347016,"Jaszkotle - kościół",51.0570686400,16.9017295500
4470,82022004,"Smolec - Główna (na wys. nr 83)",51.0757810000,16.8828170000
4473,82022006,"Smolec - Główna/Dworcowa",51.0722520000,16.8803870000
4484,81072082,"Smolec - Wiśniowa",51.0878690000,16.9092060000
4492,80000011,"Krzeptów - pętla",51.0901430000,16.8805740000
4496,82018002,"Skałka - skrzy. Małkowice",51.0894540000,16.8328280000
4502,81071864,"Gądów - Świerkowa",51.0469810000,16.9112370000
4506,82022003,"Smolec - Dębowa (sklep)",51.0769320000,16.8815430000
4507,82022005,"Smolec - Główna (na wys. nr 52)",51.0719800000,16.8795620000
4508,82021005,"Krzeptów - Dolina Krzeptowa",51.0923150000,16.8924340000
4521,20359030,"Psary - Szkoła",51.1858954200,17.0295569800
4523,31917004,"Wilczyce - szkoła",51.1296339100,17.1520280400
4525,30368011,"Borowa - skrzy.",51.1949370500,17.2791721200
4528,32911904,"Domaszczyn - Kościół",51.1880685700,17.1647516000
4534,32913201,"Domaszczyn - Wrocławska sklep",51.1900472700,17.1708592500
4537,32696503,"Wilczyce - Wilczycka (Clarena)",51.1157897700,17.1712915800
4539,31341001,"Łozina - Kościół",51.2322232400,17.1763553600
4542,31341016,"Łozina - Cmentarz",51.2284570600,17.1805194000
4544,32627703,"Brzezia Łąka - Główna pętla",51.1217223900,17.2721796500
4545,32627602,"Brzezia Łąka - Główna",51.1225425200,17.2649686200
4550,31480006,"Borowa - skrzy.",51.1962339200,17.2798677500
4551,31920027,"Brzezia Łąka - skrzy. Orzechowa",51.1235580000,17.2554250000
4562,9,"Zajezdnia Obornicka",51.1487374400,17.0210685900
4570,110275,"Dworzec Świebodzki",51.1089121000,17.0179990500
4572,10415,"Śrubowa",51.1121066000,17.0000292700
4593,29125,"Bierutowska 65",51.1522789200,17.1320219700
4596,31453022,"Domaszczyn - Trzebnicka",51.1962486700,17.1520264100
4600,31341018,"Długołęka - Parkowa skrzy. Konopnicka",51.1829978600,17.1889768700
4601,31341019,"Szczodre - Trzebnicka (na wys. nr 3a)",51.1848395000,17.1870037700
4621,92052030,"Brzezina - Biedronka",51.1872637800,16.8330806900
4624,20345,"Dworzec Główny (Dworcowa)",51.1002777300,17.0392014900
4625,20321,"Dworzec Główny (Dworcowa)",51.1010645000,17.0403796400
4640,30000004,"Węgrów (na wys. nr 27)",51.2644857500,17.2230908100
4642,24533,"Spółdzielcza",51.1026601700,17.1024250500
4648,23559,"POLANOWICE",51.1659920000,17.0471900000
4665,25500,"Okólna",51.1021374400,17.0673364800
4681,32110,"Nowy Dwór",51.1120634400,16.9599874400
4693,10409,"Smolecka",51.1109750000,17.0061300000
4699,20637,"Daszyńskiego",51.1267810000,17.0479320000
4702,18314,"Serowarska",51.1427507300,16.8625212500
4708,80000031,"Pietrzykowice - Sportowa/pętla",51.0539120000,16.8762700000
4711,80000041,"Pietrzykowice - Sportowa/pętla",51.0538541300,16.8764659000
4713,82026001,"Nowa Wieś Wr. - Relaksowa (na wys. nr 13)",51.0437490000,16.9103640000
4714,23136,"Syrokomli",51.1372730000,17.0479250000
4717,20336,"skwer Krasińskiego",51.1034410000,17.0422600000
4720,17109,"Chachaja",51.0816470000,16.9661190000
654,10706,"Kleczkowska",51.1267139500,17.0276264000
655,10705,"Kleczkowska",51.1274451500,17.0278245300
658,10716,"Dubois",51.1170118900,17.0332606000
665,23301,"OSOBOWICE",51.1376517300,16.9936403900
666,23107,"OSOBOWICKA (Cmentarz)",51.1354558600,17.0042563000
688,23524,"Żmigrodzka (Obwodnica)",51.1543366700,17.0281062700
689,23523,"Żmigrodzka (Obwodnica)",51.1541374900,17.0286719300
702,23554,"Kątowa",51.1556716900,17.0441461500
709,29101,"Zielna",51.1451135500,17.1072601000
710,29102,"Zielna",51.1454497500,17.1079144100
717,29533,"Azaliowa",51.1639708100,17.1119728200
729,29522,"Królewska",51.1555831300,17.1290185700
745,31341012,"Szczodre - Trzebnicka",51.1905888200,17.1839484100
750,31341006,"Szczodre - stawy",51.2044730900,17.2049794300
753,29131,"KIEŁCZOWSKA (LZN)",51.1465803400,17.1247318700
755,29311,"Poleska",51.1461778800,17.1304934700
756,29313,"Kiełczowska",51.1455231600,17.1370634200
757,29314,"Kiełczowska",51.1457117100,17.1357537300
758,29317,"Kowieńska",51.1429343600,17.1344098300
759,29318,"Kowieńska",51.1429610300,17.1356792100
793,10523,"Dmowskiego",51.1169654800,17.0236462200
804,20921,"PL. GRUNWALDZKI",51.1119574400,17.0625496500
805,20922,"PL. GRUNWALDZKI",51.1120574500,17.0628862800
809,12130,"Kołobrzeska",51.1215371800,16.9469938200
814,110601,"Pomorska",51.1173390000,17.0319280000
817,120614,"Paulińska",51.1209707300,17.0350993300
821,120665,"Słowiańska",51.1240128000,17.0427107000
838,120200,"pl. Wróblewskiego",51.1060461300,17.0468547600
841,110021,"GALERIA DOMINIKAŃSKA",51.1085276100,17.0387922100
844,20327,"Kościuszki",51.0994126300,17.0451461500
864,11308,"KRZYKI",51.0757394700,17.0076464900
867,111401,"Pereca",51.1010778400,17.0075234900
868,111402,"Pereca",51.1010856600,17.0077953300
872,120804,"Górnickiego",51.1163268200,17.0559631700
874,20924,"Reja",51.1122431100,17.0575028300
882,12528,"Metalowców",51.1322485600,16.9563613100
883,12527,"Metalowców",51.1322913500,16.9565849600
884,110423,"Poznańska",51.1217990000,17.0125290000
887,25305,"BROCHÓW (Stacja kolejowa)",51.0637473200,17.0824959800
890,24525,"Piramowicza",51.1030638600,17.0957370100
892,29927,"Żmudzka",51.1453810000,17.1416980000
895,18347,"ŻAR",51.1498370000,16.8345170000
912,18325,"RATYŃ",51.1296803000,16.8606577700
942,20909,"Katedra",51.1136232700,17.0513247700
948,11553,"Mielecka",51.0897803900,17.0001582400
949,26322,"Oboźna",51.0582983800,17.0325979100
950,26321,"Oboźna",51.0587654100,17.0324993100
965,110602,"Pomorska",51.1172673500,17.0320013500
977,20916,"PL. GRUNWALDZKI",51.1124589100,17.0608282000
979,18520,"Warmińska",51.1464748300,16.9401998300
980,18519,"Warmińska",51.1467358500,16.9383662400
982,11330,"Arena",51.0950282600,17.0272614900
993,18518,"Brodzka",51.1576467400,16.9216401400
1002,11314,"KRZYKI",51.0749540900,17.0063847900
1012,20723,"Damrota",51.1264885400,17.0548761000
1015,18306,"Krępicka - szkoła",51.1500133400,16.8604490700
1027,24122,"Działdowska",51.1331588400,17.1057941900
1028,24121,"Działdowska",51.1331715900,17.1054383500
1039,21127,"Krynicka",51.0794074100,17.0503490200
1046,25145,"Blizanowicka",51.0758844300,17.0927620700
1064,10119,"GALERIA DOMINIKAŃSKA",51.1089984000,17.0411773100
1071,16500,"Skarbowców",51.0669985300,16.9912763800
1083,31341003,"Budziwojowice",51.2230897200,17.1879813700
1097,30440003,"Borowa - szkoła",51.1891701200,17.2791587300
1098,30440004,"Borowa - szkoła",51.1894895500,17.2790538400
1119,21177,"SPISKA (Ośrodek sportu)",51.0831455300,17.0311058100
1120,21176,"SPISKA (Ośrodek sportu)",51.0835642600,17.0299742900
1123,90336009,"Wilkszyn - Polna",51.1886197000,16.8665259000
1126,18527,"Kozia",51.1574673900,16.9279079700
1132,18334,"Las Ratyński",51.1232748200,16.8330233700
1136,17507,"Graniczna",51.1087178700,16.9092042900
1137,12523,"METALOWCÓW (Ośrodek sportu)",51.1295893900,16.9549576600
1139,18537,"Dworska",51.1437776400,16.9529776600
1149,17304,"Muchobór Wielki",51.0989253500,16.9415527700
1151,11706,"FAT",51.0946277100,16.9812620600
1152,18524,"Turoszowska",51.1527705700,16.9473097800
1153,16724,"KLECINA (Stacja kolejowa)",51.0581600000,16.9879110000
1156,11530,"Żelazna",51.0961279600,17.0124964900
1165,23145,"Bezpieczna",51.1424593700,17.0256778100
1190,29303,"Zgorzelisko",51.1383725500,17.1313198600
1196,31341013,"Szczodre - Trzebnicka",51.1903616100,17.1841944200
1199,31341007,"Szczodre - stawy",51.2044680000,17.2053534500
1200,31341002,"Budziwojowice",51.2228853800,17.1881141400
1204,31912003,"Dąbrowica",51.2174882700,17.2168247400
1209,24523,"Chełmońskiego",51.1036517700,17.0909484300
1212,24720,"Kmieca",51.1052327000,17.1457403400
1229,25110,"Armii Krajowej",51.0878336400,17.0683065300
1233,11372,"Uniwersytet Ekonomiczny",51.0900816400,17.0291803800
1239,12153,"Wrocławski Park Technologiczny",51.1050638300,16.9707481600
1246,29518,"Białych Goździków",51.1568032100,17.1009474200
1247,29519,"Białych Goździków",51.1569269900,17.0993175900
1249,21151,"TARNOGAJ",51.0777923300,17.0646699500
1273,10108,"Rynek",51.1094083200,17.0264757300
1277,120821,"most Grunwaldzki",51.1101332700,17.0555734000
1278,10555,"Dmowskiego",51.1169898900,17.0256625400
1305,20730,"Mosty Warszawskie",51.1283829400,17.0538428000
1306,12149,"Szkocka",51.1091444900,16.9685528800
1307,12530,"Gądowianka",51.1201672100,16.9730231300
1308,12533,"Gądowianka",51.1192349800,16.9710863900
1315,120632,"Daszyńskiego",51.1267401900,17.0483523400
1318,23146,"Bezpieczna",51.1413600100,17.0263762300
1319,23727,"Sołtysowicka",51.1424517300,17.0709130900
1320,23728,"Sołtysowicka",51.1438147100,17.0713533200
1326,12319,"Hala Orbita",51.1323514000,16.9894391000
1327,12320,"Hala Orbita",51.1322068200,16.9897592300
1331,16713,"Marcepanowa",51.0617578900,16.9758113000
1345,11658,"Aleja Pracy",51.0913845800,16.9867018500
1346,11657,"Aleja Pracy",51.0917529900,16.9852588200
1354,12405,"Bajana",51.1307276200,16.9671791900
1373,24203,"Chopina",51.1167369100,17.0816246200
1374,24204,"Chopina",51.1168782100,17.0819947300
1383,12402,"DH Astra",51.1279632400,16.9762310900
4727,21370210,"SZYMANÓW-pętla",51.1970000000,17.0090000000
4743,20292,"Urząd Wojewódzki (Impart)",51.1086373700,17.0495530400
4747,80347012,"Pietrzykowice - Sportowa/Główna",51.0535900000,16.8784220000
4757,120817,"Kliniki - Politechnika Wrocławska",51.1092830000,17.0661620000
4763,24325,"Kochanowskiego",51.1144007200,17.0735034800
4766,23300,"OSOBOWICE",51.1375081600,16.9943834600
4774,20204,"pl. Zgody (Muzeum Etnograficzne)",51.0998940500,17.0543140600
4775,20282,"Urząd Wojewódzki (Muzeum Narodowe)",51.1096733000,17.0477552500
4785,12113,"Strzegomska 148",51.1145839500,16.9717046700
4794,18526,"TARCZYŃSKI ARENA (Królewiecka)",51.1451620400,16.9491360000
4803,18501,"TARCZYŃSKI ARENA (Królewiecka)",51.1450275900,16.9479168600
4805,18013,"Tarczyński Arena (Lotnicza)",51.1373814700,16.9403289800
4819,61972008,"Żórawina - Orange",50.9847404200,17.0230663800
4874,70161005,"Biskupice Podg. DSC Poland/Dong Yang",51.0200540200,16.8958847200
4876,70161002,"Biskupice Podg. LG Chem",51.0159889300,16.8867179800
4892,120820,"PL. GRUNWALDZKI",51.1116205100,17.0600864200
4897,20823,"PL. GRUNWALDZKI",51.1116106300,17.0604342000
4899,20815,"PL. GRUNWALDZKI",51.1114516500,17.0605291900
4920,24209,"8 Maja",51.1136047100,17.0914420400
5011,31371001,"Godzieszowa - transformator",51.2411118800,17.1305958400
5108,23509,"Lipa Piotrowska",51.1727489300,16.9950801900
5124,30782,"PL. STASZICA",51.1222140000,17.0296960000
5127,21017,"Tarnogajska",51.0836768100,17.0602039000
1384,12401,"DH Astra",51.1281382200,16.9760575700
1386,10652,"Dmowskiego",51.1162438800,17.0247238200
1423,18002,"Glinianki",51.1379238300,16.9363732100
1424,18001,"Glinianki",51.1380635300,16.9349894600
1430,10245,"Grabiszyńska",51.1024208300,17.0136450500
1433,20808,"Grunwaldzka",51.1150209000,17.0677333000
1434,20807,"Grunwaldzka",51.1151340100,17.0667623800
1438,10024,"Hala Targowa",51.1126609400,17.0394104900
1451,16408,"Sąsiedzka",51.0667437300,16.9946541100
1452,16407,"Sąsiedzka",51.0666007900,16.9936008400
1455,18012,"Jeleniogórska",51.1451916100,16.8784282200
1456,18011,"Jeleniogórska",51.1453345700,16.8780290600
1461,21012,"Kamienna",51.0863024900,17.0468284400
1464,23016,"Kamieńskiego",51.1407474500,17.0321338600
1465,23015,"Kamieńskiego",51.1409766200,17.0322222300
1468,25009,"Karwińska",51.0819435600,17.0769604500
1469,25010,"Karwińska",51.0820457700,17.0769832000
1471,20811,"Katedra",51.1134442000,17.0502179500
1472,20809,"Katedra",51.1142165900,17.0504584200
1476,24007,"Kętrzyńska",51.1308779600,17.0744822500
1484,16410,"KLECINA",51.0656686300,16.9873501300
1494,24015,"KOWALE",51.1278141900,17.1021921400
1500,24009,"Kwidzyńska",51.1315553500,17.0796554100
1522,20206,"Na Niskich Łąkach",51.0962539600,17.0565709000
1531,11651,"Ojca Beyzyma",51.0903690000,16.9933187300
1532,11652,"Ojca Beyzyma",51.0904155400,16.9924411100
1535,11213,"Orla",51.0801037600,17.0080294800
1541,10271,"pl. Legionów",51.1041631800,17.0225440200
1550,10274,"pl. Orląt Lwowskich",51.1072991300,17.0214432900
1551,10273,"pl. Orląt Lwowskich",51.1073735000,17.0215681200
1567,11402,"Pereca",51.1011168300,17.0079876300
1571,20854,"Piastowska",51.1153658200,17.0608780600
1572,12409,"PILCZYCE",51.1360934100,16.9504506500
1573,12410,"PILCZYCE",51.1359476600,16.9505394900
1574,24411,"Piramowicza",51.1030818500,17.0964061300
1575,24412,"Piramowicza",51.1031807600,17.0963274400
1578,10452,"PL. JANA PAWŁA II",51.1121344400,17.0222294200
1579,10451,"PL. JANA PAWŁA II",51.1122244400,17.0225310600
1600,21010,"Prudnicka",51.0900471900,17.0448159600
1605,20266,"Pułaskiego",51.0981942500,17.0430250300
1606,20265,"Pułaskiego",51.0982992200,17.0429557600
1611,11206,"Rondo",51.0906902300,17.0171240100
1623,20666,"Słowiańska",51.1235418700,17.0402172400
1624,20684,"Słowiańska",51.1240703500,17.0428228900
1625,20665,"Słowiańska",51.1236268500,17.0413495600
1666,20670,"Wyszyńskiego",51.1219185200,17.0529416500
1667,20669,"Wyszyńskiego",51.1223239400,17.0518703600
1671,18008,"Złotnicka",51.1437594200,16.8899994500
1672,18007,"Złotnicka",51.1438728600,16.8897977600
1673,24403,"ZOO",51.1056142900,17.0774178600
1674,24404,"ZOO",51.1055608100,17.0778982000
1680,20616,"DWORZEC NADODRZE",51.1248409100,17.0348163400
1688,10104,"Rynek",51.1119722800,17.0272170900
1689,25013,"KSIĘŻE MAŁE",51.0776421800,17.0834818600
1750,20855,"PL. GRUNWALDZKI",51.1111410600,17.0611933000
1751,20816,"PL. GRUNWALDZKI",51.1111569000,17.0614648300
1757,18204,"LEŚNICA",51.1446892600,16.8723451000
1767,20634,"Nowowiejska",51.1239173100,17.0441528000
1776,18364,"Mokrzańska",51.1492093400,16.8546678400
1777,18362,"Krępicka",51.1512331000,16.8563744500
1778,18361,"Krępicka",51.1513831800,16.8561835800
1779,18363,"Krępicka",51.1505124500,16.8552577400
1780,18303,"Zajazdowa",51.1480948200,16.8653655100
1781,18304,"Zajazdowa",51.1478387100,16.8656115900
1783,11319,"Gwiaździsta",51.0995503700,17.0262885600
1816,16721,"Połabian",51.0562372400,16.9704749500
1817,16720,"Połabian",51.0567143100,16.9713183600
1818,25314,"BIEŃKOWICE",51.0477088500,17.0910195600
1900,124202,"Kochanowskiego",51.1150180000,17.0733340000
1901,124201,"Kochanowskiego",51.1151273100,17.0737479000
1951,11741,"Aleja Wędrowców",51.0879861000,16.9918824300
1952,11742,"Aleja Wędrowców",51.0886740900,16.9923010800
1958,12531,"PILCZYCE",51.1366514300,16.9480223700
1962,17132,"Wiejska",51.0770027600,16.9641515900
1982,21136,"BARDZKA (Cmentarz)",51.0730613500,17.0531783000
2032,20658,"pl. Bema",51.1173948800,17.0409097100
2033,20657,"pl. Bema",51.1170872500,17.0432679700
2038,26305,"Parafialna",51.0618126800,17.0322664300
2052,21026,"Morwowa",51.0772526500,17.0517399700
2054,21029,"Świeradowska",51.0771518800,17.0462618300
2055,21028,"Świeradowska",51.0770472100,17.0462380800
2115,31922006,"Kiełczówek",51.1194486800,17.1789982800
2174,23156,"Obornicka (Obwodnica)",51.1574756400,17.0094034200
2177,89535,"Pawłowice",51.1654326600,17.1065903300
2199,80362018,"Samotwór - Dębowa",51.1064770000,16.8359480000
2200,80362017,"Samotwór - Dębowa",51.1067160000,16.8365920000
2217,10009,"Wita Stwosza",51.1107382200,17.0349735200
2251,18305,"Krępicka - szkoła",51.1501949100,16.8600396000
2252,31920015,"Brzezia Łąka - cmentarz",51.1227209200,17.2391994100
2259,12112,"Rogowska",51.1103765500,16.9559448100
2260,12111,"Rogowska",51.1104645400,16.9558800200
2263,26345,"ROD Storczyk",51.0477536300,17.0159136000
2264,26346,"ROD Storczyk",51.0476633700,17.0160435600
2274,29504,"Wallenroda",51.1549666500,17.1191277600
2279,29107,"Dobroszycka",51.1514553900,17.1282492000
2280,31917002,"Wilczyce",51.1330209100,17.1428825800
2281,31917001,"Wilczyce",51.1330964600,17.1429171600
2288,21118,"ROD Bajki",51.0838947200,17.0352944100
2294,11203,"Wielka",51.0941514200,17.0210274000
2295,11204,"Wielka",51.0936515200,17.0206349900
2298,16719,"ROD Bielany",51.0552190800,16.9775086500
2299,16718,"ROD Bielany",51.0553851700,16.9776400000
2305,29503,"Wallenroda",51.1561601200,17.1204658300
2307,26116,"ROD Mieczyk",51.0641251200,17.0692762000
2310,125003,"KRAKOWSKA (Centrum handlowe)",51.0891053100,17.0659851700
2317,31909004,"Tokary - osiedle",51.2307025900,17.1347456300
2329,21139,"GAJ - pętla",51.0771230900,17.0495971700
2330,21138,"GAJ - pętla",51.0767817900,17.0509904200
2331,21140,"GAJ - pętla",51.0767824000,17.0505479400
2342,16705,"WAŁBRZYSKA",51.0648963600,16.9761323900
2355,12601,"Kolista",51.1330014600,16.9728653000
2356,12602,"Kolista",51.1329353800,16.9727068400
2359,12606,"Modra",51.1366740600,16.9666521900
2360,12605,"Modra",51.1368106200,16.9666722800
2475,17723,"JARNOŁTÓW",51.1214176400,16.8439344000
2488,29133,"Poleska",51.1460447200,17.1282584700
2493,4,"Zajezdnia BOREK",51.0786247200,17.0069904300
2497,1,"Zajezdnia GAJ",51.0892658800,17.0296803600
2529,25311,"Arabska",51.0511576500,17.0923256000
2540,21030,"GAJ",51.0771603100,17.0399816000
2541,21037,"GAJ",51.0772602400,17.0399774200
2554,12712,"Kolista",51.1332341200,16.9740393900
2617,12608,"Kozanowska",51.1389990200,16.9652739400
2618,12607,"Kozanowska",51.1390591400,16.9654023200
2666,726951,"Wysoka",51.0462580000,17.0125070000
2737,23315,"Góra Kapliczna",51.1512761800,16.9929207400
2781,29926,"Kiełczowska (Cmentarz)",51.1453417500,17.1480205300
2782,29925,"Kiełczowska (Cmentarz)",51.1446824900,17.1508504600
2792,23169,"Kamieńskiego (Szpital)",51.1491041800,17.0432048100
2797,17729,"Żernicka (Stacja kolejowa)",51.1260832900,16.9142594700
2798,17730,"Żernicka (Stacja kolejowa)",51.1269802100,16.9138502600
2815,10365,"Arkady (Capitol)",51.1020902000,17.0294678100
2821,10027,"pl. Nowy Targ",51.1103870600,17.0391595200
2838,90336003,"Pisarzowice - Szkolna",51.2097013000,16.8511683000
2839,90336004,"Pisarzowice - Szkolna",51.2099469000,16.8514230000
2840,90336001,"Pisarzowice - Kolejowa",51.2137413000,16.8474439000
2861,11711,"FAT",51.0945698500,16.9778035600
2868,20729,"Mosty Warszawskie",51.1286346300,17.0560976100
2875,17314,"MIŃSKA (Rondo Rotm. Pileckiego)",51.1072206500,16.9494872000
2876,17313,"MIŃSKA (Rondo Rotm. Pileckiego)",51.1075314500,16.9495754800
2877,11320,"EPI",51.0981253800,17.0317100400
2885,32107,"Nowodworska",51.1138580300,16.9647181400
2893,12609,"KOZANÓW (Dokerska)",51.1412835600,16.9640954100
2905,25316,"Chińska",51.0604299400,17.0832314300
2906,25308,"Semaforowa",51.0617030100,17.0795609300
2910,21119,"Sucha",51.0968183300,17.0382024400
2927,31920010,"Kiełczów - Zgodna",51.1376220700,17.1869286600
2930,31920006,"Kiełczów - Wrocławska",51.1409341000,17.1743202900
2931,31920005,"Kiełczów - Wrocławska",51.1412775600,17.1733541100
2937,17130,"Kwiatkowskiego (Rondo)",51.0725259700,16.9536394100
2941,31920009,"Kiełczów - Boczna",51.1374282200,17.1886397600
2943,12143,"Nowy Dwór (Stacja kolejowa)",51.1199188200,16.9526405300
2945,16505,"Skarbowców",51.0662541300,16.9893355300
2948,10333,"Wzgórze Partyzantów",51.1037869200,17.0384902700
2949,24706,"Magellana",51.1135545300,17.1213349700
2950,24705,"Magellana",51.1134611700,17.1222761100
2951,18351,"Eluarda",51.1462280000,16.8674081100
2956,17509,"Zarembowicza",51.1079012500,16.8993525200
2960,17510,"Skarżyńskiego",51.1092096100,16.9041677300
3008,18114,"Kosmonautów (Szpital)",51.1418397200,16.9059574500
3010,18113,"Kosmonautów (Szpital)",51.1420698800,16.9050148800
3013,20904,"Świętokrzyska",51.1172973300,17.0441863200
3015,23518,"Rzemieślnicza",51.1708793000,17.0037794600
3021,31480004,"Stępin",51.2088041400,17.2805974900
3025,31920014,"Pietrzykowice",51.1229591200,17.2324348500
3044,29552,"Przebiśniegowa",51.1725207300,17.1133433600
3065,31908002,"Zaprężyn",51.2520818900,17.1923899500
3076,18738,"Wojanowska",51.1538492600,16.8933106500
3077,18737,"Wojanowska",51.1540286700,16.8948967600
3102,21112,"PETRUSEWICZA",51.0921375700,17.0310054400
3103,21111,"PETRUSEWICZA",51.0918588100,17.0305786900
3104,21126,"PETRUSEWICZA",51.0920338300,17.0316110300
3105,21153,"PETRUSEWICZA",51.0918640100,17.0315494300
3182,11730,"OPORÓW",51.0841331200,16.9720301300
3196,29100,"MULICKA",51.1457436400,17.1168372000
3198,11611,"OPORÓW",51.0842439300,16.9715155100
3199,11614,"OPORÓW",51.0843100000,16.9720010000
3200,11616,"OPORÓW",51.0843200000,16.9721860000
3216,23127,"Wołowska",51.1484230800,17.0302276200
3219,18106,"Kamiennogórska (Ośrodek dla niewidomych)",51.1424931400,16.9007395600
3244,29545,"Odolanowska",51.1669222100,17.1291596500
3245,29546,"Odolanowska",51.1659409700,17.1279691600
3247,29543,"Odrodzenia Polski",51.1642934000,17.1262011100
3266,123004,"Serbska (C.K. Agora)",51.1336640000,17.0199740000
3271,50000057,"MOKRY DWÓR",51.0711730000,17.1239510000
3292,50000054,"Starodworska",51.0739110000,17.1085850000
3370,50000064,"BLIZANOWICE",51.0701980600,17.1572341900
3410,17131,"Jordanowska",51.0785478300,16.9581790100
3415,29128,"Psie Pole (Rondo Lotników Polskich)",51.1471400000,17.1143630000
3418,11361,"Sudecka",51.0847899900,17.0189261000
3422,29135,"Psie Pole (Rondo Lotników Polskich)",51.1465900000,17.1153640000
3432,21370005,"Psary - Szkoła",51.1864826400,17.0319753800
3433,90094001,"Krępice",51.1531860000,16.8166810000
3440,23528,"Rondo Obrońców Grodna",51.1647578600,17.0276791400
3441,23527,"Rondo Obrońców Grodna",51.1648396200,17.0281034400
3443,23537,"Rondo Obrońców Grodna",51.1665236300,17.0273642600
3451,11701,"Bzowa (Centrum Zajezdnia)",51.0975086400,16.9913099400
3460,24146,"Kromera (Czajkowskiego)",51.1355758100,17.0690750500
3476,90336000,"Wilkszyn (pętla)",51.1916954000,16.8627186600
3478,91607008,"GAŁÓW (pętla)",51.1118900000,16.8106290000
3516,110223,"DWORZEC GŁÓWNY",51.1007139500,17.0360707800
3518,21120,"DWORZEC AUTOBUSOWY",51.0970988000,17.0364298100
3522,20268,"DWORZEC GŁÓWNY",51.0996927600,17.0355198300
3525,10226,"Dworzec Główny (Stawowa)",51.0999048600,17.0338842900
3534,20720,"Słonimskiego",51.1304362100,17.0451917500
3536,20725,"Zakładowa",51.1299145400,17.0383645200
3537,20726,"Zakładowa",51.1300028600,17.0386389000
3551,26103,"Konduktorska",51.0662011000,17.0547513800
3552,26104,"Konduktorska",51.0674430000,17.0545040000
3565,17134,"Kadłubka",51.0762234400,16.9688686400
3581,11363,"Weigla (Szpital)",51.0764488900,17.0176764900
3582,11364,"Weigla (Szpital)",51.0773993700,17.0191201400
3600,31341010,"Szczodre - pętla",51.1944852600,17.1827382100
3601,31341011,"Szczodre - pętla",51.1945124200,17.1828914400
3602,31341015,"Długołęka - Parkowa/skrzy.",51.1795100300,17.1903906100
3615,31913012,"Dobroszów Oleśnicki",51.2163707600,17.2287080600
3623,30440001,"Borowa - stacja kolejowa",51.1851082600,17.2799828100
3624,30440002,"Borowa - stacja kolejowa",51.1854448500,17.2801659700
3635,31913011,"Dobroszów Oleśnicki",51.2161177000,17.2288022300
3636,31920026,"Oleśniczka - skrzy.",51.1493024500,17.2824804600
3637,31920025,"Oleśniczka - skrzy.",51.1494058600,17.2826094300
3652,32618302,"Ramiszów",51.1887837000,17.1015445200
3653,32618201,"Ramiszów",51.1887846200,17.1014066200
3666,31909005,"Tokary - centrum",51.2331200700,17.1404955900
3667,31909006,"Tokary - centrum",51.2330337300,17.1404028900
3675,31913001,"Jaksonowice - skrzy.",51.2495630900,17.2452439900
3683,31453024,"Domaszczyn - skrzy.",51.1889128000,17.1511035600
3684,31920017,"Brzezia Łąka - Wrocławska",51.1234713600,17.2456659100
3685,31920018,"Brzezia Łąka - Wrocławska",51.1233520500,17.2456382500
3706,31453017,"Łozina - Wrocławska (na wys. nr 18)",51.2300115600,17.1725796400
3707,31453016,"Łozina - Wrocławska (na wys. nr 18)",51.2304029100,17.1727172300
3721,31371006,"Siedlec - stacja",51.2345642400,17.1212862900
3722,31371005,"Siedlec - stacja",51.2345308900,17.1214700400
3765,18515,"Maślicka (Osiedle)",51.1476693500,16.9476730200
3767,18326,"Rodła",51.1247121300,16.8636410200
3772,11201,"Zaolziańska",51.0978092500,17.0253910500
3773,11202,"Zaolziańska",51.0974777700,17.0251870300
3779,18119,"Fieldorfa",51.1465286800,16.9080421200
3801,17709,"Jerzmanowska nr 17",51.1274170000,16.9018090000
3802,17710,"Jerzmanowska nr 17",51.1275217100,16.9005955800
3803,17707,"Jerzmanowska nr 9",51.1260826600,16.9098917700
3804,17708,"Jerzmanowska nr 9",51.1261206400,16.9089938100
3807,26318,"rondo Św. Ojca Pio",51.0594979600,17.0062233500
3808,26317,"rondo Św. Ojca Pio",51.0596891500,17.0056594100
3814,11545,"Racławicka (szkoła)",51.0846813500,17.0069504700
3815,11546,"Gajowicka (szkoła)",51.0846041800,17.0038120300
3817,26310,"Grota-Roweckiego",51.0507896000,17.0300235400
3822,24313,"8 Maja",51.1135520500,17.0922912900
3830,23314,"ŚLAZOWA",51.1525993200,16.9960965700
3832,23012,"KARŁOWICE",51.1340165900,17.0367124600
3833,23560,"KMINKOWA",51.1794939500,17.0060405900
3865,91606008,"Lutynia - Kolonia",51.1317310000,16.7562730000
3872,18546,"Królewiecka (Staw)",51.1544867800,16.9240408900
3889,18341,"Leśnica - Hermes",51.1460950500,16.8656923700
3891,11303,"Hallera",51.0871386900,17.0124994200
3900,11351,"Hallera",51.0860710600,17.0125515300
3901,11352,"Hallera",51.0867284400,17.0114723100
3905,11252,"Hallera",51.0865126500,17.0114967300
3906,121014,"Bardzka",51.0834758500,17.0492901000
3907,21023,"Bardzka",51.0825577700,17.0493748100
3908,21014,"Bardzka",51.0834758100,17.0492901100
3920,18345,"ŻAR",51.1500589900,16.8340788200
3927,18503,"Rędzińska (Cmentarz)",51.1491117300,16.9453108400
3940,90094003,"Wróblowice",51.1583140000,16.7855210000
3941,90094004,"Wróblowice",51.1582560000,16.7810770000
3976,92056014,"Miękinia - stacja PKP",51.1882550600,16.7356126000
3983,92056017,"Kadłub NŻ",51.1830510000,16.7045340000
4012,90094005,"Błonie",51.1586335000,16.7498056900
4023,92058001,"Mrozów - Świetlica",51.1856332900,16.7906827700
4030,17732,"Piołunowa",51.1226690000,16.8798300000
4032,17739,"Kaczorowskiego",51.1262651600,16.8799415300
4036,17744,"Osiniecka",51.1218630000,16.8914370000
4037,17743,"Osiniecka",51.1217030000,16.8910350000
4042,17728,"Jerzmanowo (Cmentarz II)",51.1231926300,16.8827889600
4053,17530,"PORT LOTNICZY",51.1093559700,16.8823890600
4055,17532,"PORT LOTNICZY",51.1093520000,16.8826020000
4114,80347018,"Cesarzowice skrz.",51.0625990000,16.9235800000
4115,80347017,"Cesarzowice skrz.",51.0626480000,16.9235810000
4119,17719,"Krzeptowska",51.1202956100,16.8558288700
4120,17720,"Krzeptowska",51.1202335400,16.8565220700
4131,18740,"Arachidowa",51.1541732100,16.8990172800
4133,18745,"Olbrachtowska",51.1530869900,16.9041140600
4138,26101,"Buforowa-Rondo",51.0690493100,17.0538350700
4144,18384,"LEŚNICA",51.1448620800,16.8719590700
4161,92056005,"Księginice ul. Sportowa",51.2389420000,16.7609710000
4191,17105,"Awicenny (Stacja kolejowa)",51.0912733300,16.9505436400
4192,17106,"Awicenny (Stacja kolejowa)",51.0915556100,16.9505646600
4248,90000004,"BRZEZINA (pętla)",51.2031854000,16.8264570000
4255,31922003,"Kiełczówek - Sielska Zagroda",51.1237347200,17.1753222500
4257,31918009,"Długołęka - Broniewskiego (na wys. nr 11)",51.1762098200,17.1915456100
4258,31918015,"Kamień - skrzy. Rubinowa",51.1642140000,17.2184280000
4279,61955003,"Karwiany - skrzy. (Wrocławska/Majowa)",51.0209317000,17.0036489900
4374,51934002,"Mokry Dwór - Starodworska",51.0722220000,17.1169980000
4378,51935007,"Iwiny - Słoneczna",51.0423965400,17.0770988400
4387,80362015,"Samotwór - Leśna",51.1030158900,16.8312339700
4392,71951007,"Ślęza - autostrada",51.0429611200,16.9911994900
4397,70008002,"Bielany Wrocławskie - Makro",51.0466739600,16.9703692700
4398,70008006,"Bielany Wrocławskie - Boczna",51.0373768200,16.9681605600
4399,70008005,"Bielany Wrocławskie - Boczna",51.0378031800,16.9685451600
4406,71951009,"Wysoka - osiedle",51.0510177600,17.0018901800
4410,71951006,"Ślęza - skrzyżowanie",51.0369970000,16.9847500000
4422,30000001,"Skała - wieś",51.2594497600,17.2341490300
4423,30000002,"Skała - wieś",51.2595707800,17.2344167900
4466,82021003,"Krzeptów - Boisko",51.0906750000,16.8850180000
4467,82021006,"Krzeptów - Boisko",51.0906780000,16.8855840000
4475,81071832,"Smolec - Chłopska/Cisowa",51.0805630000,16.8974030000
4478,81071835,"Smolec - Chłopska/Wrzosowa",51.0865790000,16.9105510000
4479,81071836,"Smolec - Chłopska/Wrzosowa",51.0863750000,16.9103200000
4480,81071862,"Gądów",51.0511470000,16.9097260000
4481,81071861,"Gądów",51.0511570000,16.9096100000
4493,82021001,"Kębłowice",51.0870860900,16.8511120400
4527,31480002,"Stępin - Kościół",51.2134415000,17.2855453000
4529,32911803,"Domaszczyn - Kościół",51.1880416500,17.1650393500
4541,32623507,"Domaszczyn - Stawowa",51.1887715300,17.1504335600
4552,31920028,"Brzezia Łąka - skrzy. Sportowa",51.1236130000,17.2555240000
4554,32614901,"Kamień - Diamentowa",51.1673810000,17.2250240000
4555,32614902,"Kamień - Diamentowa",51.1673540000,17.2252490000
4558,31916003,"Mirków - skrzy. Polna",51.1590022100,17.1702052500
4559,31916004,"Mirków - skrzy. Polna",51.1590471300,17.1698429900
4568,70000001,"C.H. Aleja Bielany",51.0479215500,16.9612288600
4573,10413,"Śrubowa",51.1125122000,17.0013193700
4581,90336002,"Pisarzowice - Kolejowa",51.2138342000,16.8473652000
4583,90336013,"Brzezinka Średzka - ul. Kolejowa",51.2187274600,16.8388467700
4584,90336014,"Brzezinka Średzka - ul. Kolejowa",51.2188297500,16.8386090800
4586,29110,"Bierutowska",51.1541496000,17.1367611200
4588,29118,"Bierutowska 75",51.1557581400,17.1399840800
4589,29117,"Bierutowska 75",51.1559648100,17.1406814300
4591,29111,"BIERUTOWSKA (Wiadukt)",51.1584667300,17.1476851900
4628,20339,"Dworzec Główny (Dworcowa)",51.1006011500,17.0392713100
4646,23557,"Starościńska",51.1622657700,17.0457992500
4647,23558,"Starościńska",51.1628481700,17.0457859800
4652,23736,"pl. Daniłowskiego",51.1386180000,17.0588850000
4659,31920020,"Brzezia Łąka - skrzy. Główna",51.1231959600,17.2632370800
4660,31920019,"Brzezia Łąka - skrzy. Główna",51.1233787700,17.2632992100
4662,29308,"Kurlandzka",51.1370870000,17.1337720000
4667,12003,"Wrocławski Park Przemysłowy",51.1130560000,16.9948930000
4668,12004,"Wrocławski Park Przemysłowy",51.1129360000,16.9950100000
4669,23532,"Konopackiej",51.1698585400,17.0237765800
4684,10275,"Dworzec Świebodzki",51.1089121000,17.0179990500
4695,110409,"Smolecka",51.1109750000,17.0061300000
4696,110410,"Smolecka",51.1107290000,17.0068330000
4704,110415,"Śrubowa",51.1121066000,17.0000292700
4716,20337,"skwer Krasińskiego",51.1040880000,17.0410020000
4726,21370001,"Szymanów",51.1941474000,17.0188466100
4740,23505,"Pełczyńska (Stacja kolejowa)",51.1654575200,16.9989984500
4741,20301,"Urząd Wojewódzki (Impart)",51.1085221900,17.0502200000
4742,20291,"Urząd Wojewódzki (Impart)",51.1086103000,17.0499577900
4746,80347011,"Pietrzykowice - Sportowa/Główna",51.0536000000,16.8788780000
4751,10532,"PL. SOLIDARNOŚCI",51.1137060500,17.0175242800
4752,10530,"PL. SOLIDARNOŚCI",51.1134051000,17.0178137200
4758,20817,"Kliniki - Politechnika Wrocławska",51.1092063700,17.0664143800
4759,20818,"Kliniki - Politechnika Wrocławska",51.1097126100,17.0651114100
4761,29514,"Piwnika-Ponurego",51.1495054200,17.1110523200
4762,29513,"Piwnika-Ponurego",51.1502106000,17.1098420400
4764,24327,"Witelona",51.1124555400,17.0736838900
4769,20303,"Urząd Wojewódzki (Muzeum Narodowe)",51.1104499100,17.0485819200
4770,120204,"pl. Zgody (Muzeum Etnograficzne)",51.0998800000,17.0543380000
4771,120203,"pl. Zgody (Muzeum Etnograficzne)",51.1006270000,17.0532970000
4807,18112,"Tarczyński Arena (Lotnicza)",51.1381089700,16.9426408300
4808,18111,"Tarczyński Arena (Lotnicza)",51.1383796200,16.9425624700
4809,32108,"Nowodworska",51.1141039500,16.9657434900
4810,11349,"Arena",51.0941340000,17.0264040000
4814,80362013,"Skałka",51.0940830000,16.8282220000
4818,61972009,"Żórawina - kościół Św. Trójcy",50.9804260100,17.0395771000
4820,21370911,"Szymanów (Letnia)",51.1952333800,17.0144981600
4826,26320,"Partynice (tor wyścigów konnych)",51.0608569900,16.9985086200
4844,23503,"Ostowa (Muzeum Militarne)",51.1621963400,17.0033669300
4922,24313,"8 Maja",51.1135520500,17.0922912900
4949,31913003,"Jaksonowice (na wys. nr 27)",51.2447752000,17.2417980000
5123,120267,"DWORZEC GŁÓWNY",51.0996462200,17.0372634900
